[{"id":"9c998eb7e2c489efc5bf9dbdc5ebaa4670b611c639ec7a122185297a7d3bb57d","longitude":"-1.147727","latitude":"51.353443","type":"theft","detail":"Other theft","location":"On or near The Beeches","distance":-1},{"id":"83b490fe725fd0edd6c1797aeffea53202998740488e022061277b82fd2aacf3","longitude":"-1.147727","latitude":"51.353443","type":"public order","detail":"Public order","location":"On or near The Beeches","distance":-1},{"id":"2ee864e95be8cc8622eb12ccc347bed4b2803ad5adba20a3e2199dc1c52b92af","longitude":"-1.147727","latitude":"51.353443","type":"public order","detail":"Public order","location":"On or near The Beeches","distance":-1},{"id":"58fdf118b24d91337a2472a9b99c563677237f002ce7bfc7530963e4eef2bdbb","longitude":"-1.147727","latitude":"51.353443","type":"violence","detail":"Violence and sexual offences","location":"On or near The Beeches","distance":-1},{"id":"2111e61266e01a7ae37bc3fa223ea2d9b39c68c85a2fbccd4fca46e399970565","longitude":"-1.147727","latitude":"51.353443","type":"violence","detail":"Violence and sexual offences","location":"On or near The Beeches","distance":-1},{"id":"8847cd8e8845c04191c4bf13f6c76afbfe4c3294d359cc90b2b70c7dfde63152","longitude":"-1.157668","latitude":"51.354819","type":"violence","detail":"Criminal damage and arson","location":"On or near Wigmore Road","distance":-1},{"id":"c0d68d4107a5fe84a759b55e8dda11164e64008c72b67740881432fc9155e1ee","longitude":"-1.151854","latitude":"51.357016","type":"public order","detail":"Public order","location":"On or near Supermarket","distance":-1},{"id":"4be354f853fe329d3bdaeb14774b5289b80157b1cdba4a73ebac4f69c8ec18b5","longitude":"-1.149492","latitude":"51.356603","type":"violence","detail":"Violence and sexual offences","location":"On or near Franklin Avenue","distance":-1},{"id":"5b67a962c021cb25faea2d79bf7967faa45f9e60c84cfd4b4503a70008680f2b","longitude":"-1.151854","latitude":"51.357007","type":"violence","detail":"Violence and sexual offences","location":"On or near Supermarket","distance":-1},{"id":"f6d48b7576125a9aa0ff87b1211a209c68ae37c416938fbbf813d89a76520501","longitude":"-1.149492","latitude":"51.356603","type":"violence","detail":"Violence and sexual offences","location":"On or near Franklin Avenue","distance":-1},{"id":"e6e416dfdd2623e92a62ea021ab937c05ef009b821d150a081d7dead45187afc","longitude":"-1.149492","latitude":"51.356603","type":"violence","detail":"Violence and sexual offences","location":"On or near Franklin Avenue","distance":-1},{"id":"c1a4c270f0ba22b4cd4229f09440be712f09458fdfa2519f5bd23f12f4a6ad0a","longitude":"-1.141212","latitude":"51.355464","type":"theft","detail":"Other theft","location":"On or near Supermarket","distance":-1},{"id":"d57fbaa703bbc0981786be94f9a0195f0a989915c372cb6f91cc2b947a633c1d","longitude":"-1.140029","latitude":"51.353486","type":"violence","detail":"Possession of weapons","location":"On or near Gorselands","distance":-1},{"id":"b30121a3b8d3d46ebc7e2a57e943151b1e83b1ea871fe02423ab695de9ab950c","longitude":"-1.144009","latitude":"51.357220","type":"public order","detail":"Public order","location":"On or near A340","distance":-1},{"id":"3e9620ba138fd7e8292ca6584e0aae442d684a64303ec06752dc622830064be1","longitude":"-1.141741","latitude":"51.354829","type":"public order","detail":"Public order","location":"On or near The Parade","distance":-1},{"id":"01a149756918f2f48544fee0f2dcc55fa16edd18e7a8086441d1d7082e33beb6","longitude":"-1.141212","latitude":"51.355464","type":"public order","detail":"Public order","location":"On or near Supermarket","distance":-1},{"id":"ca1fd3965d9d55e5dd028a70948efba3a74ce1cfc75442661f211ae936525fd3","longitude":"-1.141212","latitude":"51.355464","type":"public order","detail":"Public order","location":"On or near Supermarket","distance":-1},{"id":"0d7a885e785152160e72d48e88266804deff077c48b17395aa4fb67e223e7c22","longitude":"-1.141212","latitude":"51.355464","type":"public order","detail":"Public order","location":"On or near Supermarket","distance":-1},{"id":"e42a529b54d727419f35c024cfa37a9c1146be674c9ae7ae900b1688927b73d7","longitude":"-1.144009","latitude":"51.357220","type":"public order","detail":"Public order","location":"On or near A340","distance":-1},{"id":"ad113df3795b7bf0e84cc72761961a2f076f1b6575ada50e97a49cb42ae8ad01","longitude":"-1.141212","latitude":"51.355464","type":"theft","detail":"Shoplifting","location":"On or near Supermarket","distance":-1},{"id":"16fb78d88947a1207a391e90677bcda6b58572fa844b43f4fbacafc5244b91bd","longitude":"-1.141212","latitude":"51.355464","type":"theft","detail":"Shoplifting","location":"On or near Supermarket","distance":-1},{"id":"6feb8c114666f6d6e0f8cc020da86621ed5479b3c0f98db91c6bf5d36033265f","longitude":"-1.141212","latitude":"51.355464","type":"theft","detail":"Shoplifting","location":"On or near Supermarket","distance":-1},{"id":"7a81bd47371ebb485bfa53aa93e747b2d6669bf33d074df6f6e79b8cb8e55e70","longitude":"-1.141212","latitude":"51.355464","type":"theft","detail":"Shoplifting","location":"On or near Supermarket","distance":-1},{"id":"85d5b5fd21b6ff86ff1fc7f698fc5210292e55837269cf8d2ced90095d62f5a8","longitude":"-1.138712","latitude":"51.354789","type":"theft","detail":"Vehicle crime","location":"On or near Blake'S Lane","distance":-1},{"id":"373b869f14a63946e141b5b38e960cb76bf0c2e5a3e9b1567e453dd05f07a0ca","longitude":"-1.133567","latitude":"51.357251","type":"violence","detail":"Violence and sexual offences","location":"On or near Sports/Recreation Area","distance":-1},{"id":"42186576a66f756367a4052d6ad700ff55c15fe1fdad80072a05da021ab212bc","longitude":"-1.160642","latitude":"51.359444","type":"violence","detail":"Criminal damage and arson","location":"On or near Birch Road","distance":-1},{"id":"50cafd0f97e3c99ce4f43e14754e8fb8b22aeb7c04451b4b11127ac64885432a","longitude":"-1.157593","latitude":"51.358136","type":"violence","detail":"Criminal damage and arson","location":"On or near Hanger Road","distance":-1},{"id":"a6856914c0ad3d1ad550626d07b4001542bfebe1e0d6f6ea60da04941604fd15","longitude":"-1.150389","latitude":"51.359352","type":"public order","detail":"Public order","location":"On or near Almswood Road","distance":-1},{"id":"0acf9b9e4cd309db2b235a3a472dd2e8be729fd568df9086b16e0c3513844869","longitude":"-1.160642","latitude":"51.359444","type":"public order","detail":"Public order","location":"On or near Birch Road","distance":-1},{"id":"a6d2b596a733465cc58c24935f67ac571cc4d716861c2d85f8375f5334e26d5f","longitude":"-1.154998","latitude":"51.356310","type":"violence","detail":"Violence and sexual offences","location":"On or near Bishopswood Road","distance":-1},{"id":"88163bf8d4ee967bc2e3cfb52fc4de69e7e6ecff9dbcc619f945f1f80ca7903a","longitude":"-1.154998","latitude":"51.356310","type":"violence","detail":"Violence and sexual offences","location":"On or near Bishopswood Road","distance":-1},{"id":"adf878e305a237b4085f1c66f22db8b0b63691f0aaa8785bfa23743e2aa51c93","longitude":"-1.150389","latitude":"51.359352","type":"violence","detail":"Violence and sexual offences","location":"On or near Almswood Road","distance":-1},{"id":"fa18c8d86929542b56e14e775626698a7644095630334d48f555100bbbc1f7c8","longitude":"-1.154998","latitude":"51.356310","type":"violence","detail":"Violence and sexual offences","location":"On or near Bishopswood Road","distance":-1},{"id":"2204871d19e081c8f2d078b1b88094d0102cb130d49d04084b14a3434cdc5437","longitude":"-1.160642","latitude":"51.359444","type":"violence","detail":"Violence and sexual offences","location":"On or near Birch Road","distance":-1},{"id":"e7790e7c000ed3d6c20d712a0599f38ed75fbad4e0122a38f2d0f59d9ebb2139","longitude":"-1.157593","latitude":"51.358136","type":"violence","detail":"Violence and sexual offences","location":"On or near Hanger Road","distance":-1},{"id":"713c4168652f32942fb1316b717514bb58a3be4e8b31115f3fd40f8d2a236242","longitude":"-1.154998","latitude":"51.356310","type":"violence","detail":"Violence and sexual offences","location":"On or near Bishopswood Road","distance":-1},{"id":"923a66510fd093554a0ff0b47ec63acf4e3a7365e473a77f1084fe9653e55669","longitude":"-1.161395","latitude":"51.358326","type":"violence","detail":"Violence and sexual offences","location":"On or near O'Bee Gardens","distance":-1},{"id":"02d05ed50807436ceecd0fd461d1353a9b4eefceb1b45f7a8eaac9f700ab287e","longitude":"-1.144607","latitude":"51.349006","type":"violence","detail":"Criminal damage and arson","location":"On or near Barlows Road","distance":-1},{"id":"9da409cad0455bb98a85557e8e413557386570b381f15588a56d7fbfd8d99fa7","longitude":"-1.144868","latitude":"51.348891","type":"violence","detail":"Vehicle crime","location":"On or near Hythe Close","distance":-1},{"id":"5ffd6597c961367e180428f8f4ed7c9757de91ca0e821e87f4f399dfe29f7144","longitude":"-1.142170","latitude":"51.344923","type":"violence","detail":"Violence and sexual offences","location":"On or near Crookham Close","distance":-1},{"id":"65a54725d0cdedaffdb4dcecd28192a1dfbb5becfa6ae8afc0abaa768ab53bbc","longitude":"-1.148763","latitude":"51.347112","type":"violence","detail":"Violence and sexual offences","location":"On or near Droxford Crescent","distance":-1},{"id":"00457b0da2edec9e5ca5a804b49240cc1d944bc95c016d432b8ee13aea220fa9","longitude":"-1.097622","latitude":"51.344697","type":"violence","detail":"Violence and sexual offences","location":"On or near Byes Lane","distance":-1},{"id":"5b67a08d40f56438439997d8b12725106c80f3669510673f47842f89d5400e05","longitude":"-1.126736","latitude":"51.322258","type":"violence","detail":"Criminal damage and arson","location":"On or near Ramsdell Road","distance":-1},{"id":"54398caa84de751aab2e99a1450985ec232a2abf022b242d5c43d78599a2006a","longitude":"-1.126736","latitude":"51.322258","type":"public order","detail":"Drugs","location":"On or near Ramsdell Road","distance":-1},{"id":"c8cc4b374ec3388b34d8dfb90409ced497d5c963920ca026ad50a49f3a72c6c9","longitude":"-1.124859","latitude":"51.356764","type":"violence","detail":"Criminal damage and arson","location":"On or near Stroud Close","distance":-1},{"id":"aa1c1625d2551f43a83ede7be29d17552017343eedd7a54ea7d84a51fc3d5778","longitude":"-1.124859","latitude":"51.356764","type":"theft","detail":"Other theft","location":"On or near Stroud Close","distance":-1},{"id":"9807463ebc4dbc79d30661dba07860f5b3195654d5f636fc4f6f19cdcb503c41","longitude":"-1.117124","latitude":"51.357182","type":"theft","detail":"Other theft","location":"On or near Erskine Close","distance":-1},{"id":"92126b678efdbbc3d4491c7f4cef34ed7c2e33aabcb802fd8f408ff26d6ebacc","longitude":"-1.134273","latitude":"51.349514","type":"violence","detail":"Possession of weapons","location":"On or near Tunworth Mews","distance":-1},{"id":"95088498e93dcae6b6dfea0ccd3635ea711c0c1f2bcff108891bd6e8bcbb4684","longitude":"-1.136292","latitude":"51.351336","type":"violence","detail":"Violence and sexual offences","location":"On or near Stephens Road","distance":-1},{"id":"9c90319a17ad9e7140e461f1741bbe82c0ae150873f0cabad7e8d4a353a8499a","longitude":"-1.134273","latitude":"51.349514","type":"violence","detail":"Violence and sexual offences","location":"On or near Tunworth Mews","distance":-1},{"id":"90ae2b3fd7d9f3a8fb6405fc3908edb78835e21769863588d8db99d120238ed0","longitude":"-1.136292","latitude":"51.351336","type":"violence","detail":"Violence and sexual offences","location":"On or near Stephens Road","distance":-1},{"id":"a55fca2fcc6a77d644f006f5012e2f6e60ed41cebbb8896221c7d5a810eb0c28","longitude":"-1.137300","latitude":"51.349653","type":"violence","detail":"Violence and sexual offences","location":"On or near Hicks Close","distance":-1},{"id":"2c118d0a2f910fc3ae7797e0d07cd820bdca090958a83d45e63f08a37562eb17","longitude":"-1.136292","latitude":"51.351336","type":"other","detail":"Other crime","location":"On or near Stephens Road","distance":-1},{"id":"bbeae847aa0500a5909d50c94225a8440a18298aed732d3f11025b29dcef5e96","longitude":"-1.138893","latitude":"51.348208","type":"violence","detail":"Criminal damage and arson","location":"On or near Christy Court","distance":-1},{"id":"948a62121e4d5849b7a07a2e97a6ae88d96d60b4098ca7ddcfc04ef4cc20934d","longitude":"-1.138960","latitude":"51.349198","type":"public order","detail":"Drugs","location":"On or near Elmhurst","distance":-1},{"id":"5b69c1fc03eb61890db9365f7efa7a0cabe93bd5935b02bfa14a7a72c74e83dc","longitude":"-1.142957","latitude":"51.345846","type":"violence","detail":"Possession of weapons","location":"On or near Monks Wood Crescent","distance":-1},{"id":"fe48a5eee28246e5df5fb34b0b0f65682be0135994674ca4f8d9eb91d53c3234","longitude":"-1.142957","latitude":"51.345846","type":"violence","detail":"Violence and sexual offences","location":"On or near Monks Wood Crescent","distance":-1},{"id":"26950a95f2ba199e64b2d3a08014b54abd4dc9e30698fdb9e8e925f01fb91c52","longitude":"-1.142957","latitude":"51.345846","type":"violence","detail":"Violence and sexual offences","location":"On or near Monks Wood Crescent","distance":-1},{"id":"00f04ce9d4cb10369a2c51aef3ee38a5aa6f2130ae2c033288e4d6a87b49fee8","longitude":"-1.142093","latitude":"51.345202","type":"violence","detail":"Violence and sexual offences","location":"On or near Farringdon Way","distance":-1},{"id":"ddcf6fe78a26635b6fa0bd208553a390a384ae7f4461eb4f70d52dd7365e2ef2","longitude":"-1.132502","latitude":"51.345194","type":"violence","detail":"Violence and sexual offences","location":"On or near Linton Close","distance":-1},{"id":"b65e229e26043e91c7006271f91a9297d4d2dd4e5422efa80da3a6e01b0c8ca8","longitude":"-1.131356","latitude":"51.346588","type":"violence","detail":"Violence and sexual offences","location":"On or near North View Road","distance":-1},{"id":"4263a83350416b48108a04517a7f7f4446fec0f5654039d51c67b983050b6e0c","longitude":"-1.133565","latitude":"51.345948","type":"violence","detail":"Violence and sexual offences","location":"On or near Glebe Close","distance":-1},{"id":"36ad7bc1f55d26d075d6da4a8758696b95adae3680e403ced4259c790d59bef0","longitude":"-1.133565","latitude":"51.345948","type":"violence","detail":"Violence and sexual offences","location":"On or near Glebe Close","distance":-1},{"id":"dbb069008e1f617e9e0aaf1f2c559ff45d5c233e5b7458694fcfc45e1ebbbc03","longitude":"-1.132502","latitude":"51.345194","type":"violence","detail":"Violence and sexual offences","location":"On or near Linton Close","distance":-1},{"id":"1709bfcbb84560c94a4b3be02c33731288af9850599a0249bf6e789d5138dbe3","longitude":"-1.281849","latitude":"51.364727","type":"public order","detail":"Drugs","location":"On or near Ash Road","distance":-1},{"id":"d91f1079c61a2734edac4a8edb632942627696b81258900162a3d7fca67c4e5b","longitude":"-1.281849","latitude":"51.364727","type":"public order","detail":"Drugs","location":"On or near Ash Road","distance":-1},{"id":"08f95ee2678b40e37132fb64a8ca90be05031ca272464c1e1c3781fac2c3d2a9","longitude":"-1.282909","latitude":"51.364033","type":"theft","detail":"Other theft","location":"On or near Beech Road","distance":-1},{"id":"1fe7d75180a68f72e58c7f99c7d0b5fba894ab0c16abedd2aed12b3e9b622e5f","longitude":"-1.282909","latitude":"51.364033","type":"theft","detail":"Other theft","location":"On or near Beech Road","distance":-1},{"id":"78fab7ad91828d4d251cf51e117906ec75a7f446c5500e4e33252360ed4b0f67","longitude":"-1.281849","latitude":"51.364727","type":"violence","detail":"Possession of weapons","location":"On or near Ash Road","distance":-1},{"id":"7a430f7c0b0795892bafa465891ada3e34ba60878abf0886f950ce6e134e73f6","longitude":"-1.281835","latitude":"51.362857","type":"public order","detail":"Public order","location":"On or near Eagle Road","distance":-1},{"id":"98ef71c5ea0809f09418a551234e43026aefe688226e3d31c419880da45ed295","longitude":"-1.281849","latitude":"51.364727","type":"public order","detail":"Public order","location":"On or near Ash Road","distance":-1},{"id":"f42279d0ee1356c0490af6753994c1a723e3dfc1f7ccc988a6f55f37f5b4d6c3","longitude":"-1.281849","latitude":"51.364727","type":"public order","detail":"Public order","location":"On or near Ash Road","distance":-1},{"id":"2a90faf85fd2f1285d2c793991615d1fc72a09ba77d9cce94d9939ed39db056b","longitude":"-1.281849","latitude":"51.364727","type":"public order","detail":"Public order","location":"On or near Ash Road","distance":-1},{"id":"ae1ebcf5cf48e631255b7ecdd7a186b5d615922cab19943e2b15a4315cea7618","longitude":"-1.283259","latitude":"51.333319","type":"violence","detail":"Violence and sexual offences","location":"On or near Mill Lane","distance":-1},{"id":"9986717d8c7f1e2097d01e94b79d62d65b1108dfcd47314e8aad9fbf6eb9704f","longitude":"-1.281849","latitude":"51.364727","type":"violence","detail":"Violence and sexual offences","location":"On or near Ash Road","distance":-1},{"id":"d273a930c7ad33106a145731e2ae914089c2e7a0a6d23f0f51b6d788aacc010a","longitude":"-1.324983","latitude":"51.348169","type":"public order","detail":"Public order","location":"On or near Limes Avenue","distance":-1},{"id":"888c71bdd95363c038234b004f91dd33457c1510f06ff2cd512eb92432e392e3","longitude":"-1.335400","latitude":"51.346718","type":"public order","detail":"Vehicle crime","location":"On or near Pound Lane","distance":-1},{"id":"f4b7e79ca6e32f246463c4ebb29029dc19ebd92cc16f7051739a787762c93437","longitude":"-1.335522","latitude":"51.305500","type":"public order","detail":"Vehicle crime","location":"On or near Parking Area","distance":-1},{"id":"a95981e5224a67abc232dc3a171e115174183e8c6b572ba90aaff864818df539","longitude":"-1.324132","latitude":"51.346510","type":"public order","detail":"Vehicle crime","location":"On or near Elkington Close","distance":-1},{"id":"ceb0186d253ab5576dfb7b4f319d2802b01a31bc2f53b677a5ec39e7ec196555","longitude":"-1.330791","latitude":"51.345703","type":"violence","detail":"Violence and sexual offences","location":"On or near Harts Lane","distance":-1},{"id":"4bfa9be88b4d5e7128ca0ff27ad0d08fb7885112b7125b0e40ce7a236a5dd4fd","longitude":"-1.324983","latitude":"51.348169","type":"other","detail":"Other crime","location":"On or near Limes Avenue","distance":-1},{"id":"14c657be73ad08d097722271364a9b73e0563b5ccbaedcf4643ad0fae4983992","longitude":"-1.405478","latitude":"51.351500","type":"violence","detail":"Violence and sexual offences","location":"On or near Sports/Recreation Area","distance":-1},{"id":"117de409dfa1559eb0f2c1adc1712cc9005a18d4a0463b993372cc71d5fd4d7c","longitude":"-1.344556","latitude":"51.334954","type":"violence","detail":"Violence and sexual offences","location":"On or near Parking Area","distance":-1},{"id":"4278ac9cad47dfdd4b1e5aeecdb9d7c63615fee8e4a6478c3c500dac5743f5e3","longitude":"-1.364207","latitude":"51.350520","type":"violence","detail":"Violence and sexual offences","location":"On or near Woodlands","distance":-1},{"id":"081848df5ad665f856906d053b52abfa487ea9f75ab58e31462f2c51c72e4bcf","longitude":"-1.344556","latitude":"51.334954","type":"violence","detail":"Violence and sexual offences","location":"On or near Parking Area","distance":-1},{"id":"1c25de5f0ea4bb831e742e4a439094765f5dc96be719ff02b03020a197f292b0","longitude":"-1.364207","latitude":"51.350520","type":"violence","detail":"Violence and sexual offences","location":"On or near Woodlands","distance":-1},{"id":"9967cab38b94854cc21dd113c54fee3a2c870c30bdb667dcb2005ce216cb2102","longitude":"-1.168784","latitude":"51.354763","type":"theft","detail":"Other theft","location":"On or near Wellington Crescent","distance":-1},{"id":"3471f9ba67ff9c8ba4298ac758faf502a6b75606e6dde21f1348a0674200e7d0","longitude":"-1.168643","latitude":"51.357793","type":"public order","detail":"Public order","location":"On or near Fairoak Way","distance":-1},{"id":"cd500db8518435fc1c2f96411b247f828ebd82d184667f301bf66b63ee956541","longitude":"-1.169737","latitude":"51.357648","type":"violence","detail":"Robbery","location":"On or near Woodlands Road","distance":-1},{"id":"fba5937e71bd3e00bba620c065b04aeb13875579b21d712054808a18420d878c","longitude":"-1.171825","latitude":"51.357348","type":"violence","detail":"Violence and sexual offences","location":"On or near Park/Open Space","distance":-1},{"id":"8579bd968cc7ccc010d525ec9bc4aec2c46f96eab1347d4517822d4b9d3a5230","longitude":"-1.170119","latitude":"51.358792","type":"violence","detail":"Violence and sexual offences","location":"On or near Long Grove","distance":-1},{"id":"9a2b73fd5ae25d4f97dbdeea3780e45082384caa90c0435b0306932bceab877b","longitude":"-1.170119","latitude":"51.358792","type":"violence","detail":"Violence and sexual offences","location":"On or near Long Grove","distance":-1},{"id":"8745a63af4db8a244e5aa4119bfe413a92d49b3ef5e9851821f231d71a2148f9","longitude":"-1.169737","latitude":"51.357648","type":"violence","detail":"Violence and sexual offences","location":"On or near Woodlands Road","distance":-1},{"id":"893aa83258f913ff76a9e12b5fcd52c77b568b7af2ca42cde5d17fe5c3598948","longitude":"-1.171825","latitude":"51.357348","type":"violence","detail":"Violence and sexual offences","location":"On or near Park/Open Space","distance":-1},{"id":"66f404e4837014d0d1609485f8b31e380a0eb14dcc5cf2894c84c931c691e1e1","longitude":"-1.170119","latitude":"51.358792","type":"violence","detail":"Violence and sexual offences","location":"On or near Long Grove","distance":-1},{"id":"49d895585900a8239f07757f0a687e3c228de4130a9cec66cf1653c97940ddf1","longitude":"-1.241078","latitude":"51.347719","type":"theft","detail":"Burglary","location":"On or near Hillhouse Lane","distance":-1},{"id":"e78f89b277ff0dabf3e103ab8cb1833338e22d7f8772ea3df59e9aaa12932f14","longitude":"-1.238316","latitude":"51.324664","type":"violence","detail":"Criminal damage and arson","location":"On or near Penny'S Hatch","distance":-1},{"id":"0edd9b35f2fd73220f35209a90b4ab1d9f08c7dc34e9fa48e6afe65eb27f0e0b","longitude":"-1.247087","latitude":"51.323605","type":"theft","detail":"Other theft","location":"On or near Brimley Hill Court","distance":-1},{"id":"c49611402bd5074aa58d0368848f0f7f045e39b40c819d6894158d2733cb8d02","longitude":"-1.243499","latitude":"51.327970","type":"violence","detail":"Violence and sexual offences","location":"On or near Strokins Road","distance":-1},{"id":"94f2952fa1165efb68d3f26e912b7dce1b432b2f3dfdbca962fba5d1499242b1","longitude":"-1.243499","latitude":"51.327970","type":"violence","detail":"Violence and sexual offences","location":"On or near Strokins Road","distance":-1},{"id":"65d143af3d58b35e9e78daeca8aebe054149bb1379ff6f52f816c076b81078e5","longitude":"-1.238210","latitude":"51.325823","type":"violence","detail":"Violence and sexual offences","location":"On or near Coppice Road","distance":-1},{"id":"13c6acf7c2e76ea4927390523632b0599794db4cbc63c461090a2762a651807e","longitude":"-1.243499","latitude":"51.327970","type":"violence","detail":"Violence and sexual offences","location":"On or near Strokins Road","distance":-1},{"id":"6cffe8fcad762649ae7694a342c0f4dabf3b7b19c79ce0ef97fce13ba8864c47","longitude":"-1.243499","latitude":"51.327970","type":"violence","detail":"Violence and sexual offences","location":"On or near Strokins Road","distance":-1},{"id":"fbf384ffb330b35a4365dbc67e1fe7b9082a2d171841d25231ab2e479b7c3b41","longitude":"-1.243499","latitude":"51.327970","type":"violence","detail":"Violence and sexual offences","location":"On or near Strokins Road","distance":-1},{"id":"edb3781be6081b4b9847f38c5f7dfc338f4b37628aa51bf3d361da439118cbaa","longitude":"-1.251981","latitude":"51.328025","type":"violence","detail":"Violence and sexual offences","location":"On or near Garrett Close","distance":-1},{"id":"2f91e2fb1506dacdc95d66de077d000fc55db6fb42e4868757a96221871076eb","longitude":"-1.251981","latitude":"51.328025","type":"violence","detail":"Violence and sexual offences","location":"On or near Garrett Close","distance":-1},{"id":"9fb9fa7e0c61cd30e17442a162b5f7275629dcc62f647d8df56c146e544060e6","longitude":"-1.252237","latitude":"51.329933","type":"theft","detail":"Other theft","location":"On or near Hardys Field","distance":-1},{"id":"14b4278f646997ab9128f3bf83c6f01af72db866f30c68aa89f93be41007b0c3","longitude":"-1.255497","latitude":"51.332489","type":"theft","detail":"Other theft","location":"On or near Petrol Station","distance":-1},{"id":"c7073a002a6f48be3020229c3357303702b2486b645106265abb061cc128bcf6","longitude":"-1.255497","latitude":"51.332489","type":"theft","detail":"Other theft","location":"On or near Petrol Station","distance":-1},{"id":"015ed9d3aece631d6909980fe85c07d467461a0bc0d388fc56efe5ee8f8aa73a","longitude":"-1.203754","latitude":"51.353064","type":"violence","detail":"Violence and sexual offences","location":"On or near Petrol Station","distance":-1},{"id":"bee17dc55c0f512056e5ebb28ade478cbdf42ba879ad4e9c13ac0ffb5b9ca5b6","longitude":"-1.031472","latitude":"51.315565","type":"theft","detail":"Other theft","location":"On or near Goddards Close","distance":-1},{"id":"b6cd6439a679a7973b8b5b9bfa472d162192266838d3b1e2a4bc14368e83e3cc","longitude":"-1.044060","latitude":"51.322269","type":"theft","detail":"Other theft","location":"On or near Wallis Drive","distance":-1},{"id":"3da8d19f0018079741de1ecfaf319fc7baf12b6341c99c5cc5061fe8dc47c73e","longitude":"-1.031259","latitude":"51.318216","type":"violence","detail":"Violence and sexual offences","location":"On or near Carpenters Close","distance":-1},{"id":"ed219b417a49c3a05ccad09b07e090e903ecc781032940117523569ee37e4058","longitude":"-1.028092","latitude":"51.320716","type":"violence","detail":"Violence and sexual offences","location":"On or near The Meadow","distance":-1},{"id":"4e808f8ec1f59e280ce21ef25bb163f528bf7d7fd1de1e73b913b948454f673c","longitude":"-1.056340","latitude":"51.324571","type":"theft","detail":"Burglary","location":"On or near Beckett Gardens","distance":-1},{"id":"261e06e5624c31acee2e0ffe9dd1ca8c336137c8f925c3aa81f24c8b85371220","longitude":"-1.055793","latitude":"51.323281","type":"theft","detail":"Burglary","location":"On or near Hills Way","distance":-1},{"id":"a9fc7a9af8e94910c120ce32184392de0844986b2d6a61c842d783332b4568d5","longitude":"-1.058070","latitude":"51.328434","type":"theft","detail":"Other theft","location":"On or near Longbridge Road","distance":-1},{"id":"3c1d13e4ccd9ac1d615d56c28c894b4ba840f7e08707299c55236881a7b07a67","longitude":"-1.056340","latitude":"51.324571","type":"violence","detail":"Violence and sexual offences","location":"On or near Beckett Gardens","distance":-1},{"id":"39f194055a274a2955a6d1303ac36d7b037ccda884475464499572a139535377","longitude":"-1.055184","latitude":"51.322197","type":"violence","detail":"Violence and sexual offences","location":"On or near Garside Close","distance":-1},{"id":"0c3f07e9cfae4d76ed6032749820633d40f1ccc80a228478b1465f64edb91b0c","longitude":"-1.056633","latitude":"51.330580","type":"violence","detail":"Violence and sexual offences","location":"On or near Strawberry Fields","distance":-1},{"id":"8de1ca4be297355262d36021c4ea4770c9785668e8ad85e7c36a84d4a506a147","longitude":"-1.056633","latitude":"51.330580","type":"violence","detail":"Violence and sexual offences","location":"On or near Strawberry Fields","distance":-1},{"id":"66ff775049947feb6c59b130a83618a5c47d8b2ec5fa6dd51f7c81eff724f015","longitude":"-1.056633","latitude":"51.330580","type":"violence","detail":"Violence and sexual offences","location":"On or near Strawberry Fields","distance":-1},{"id":"a80c0212789e857628ab90f669293fc5f6ca068b61fbef3cb82125a07e19f4ac","longitude":"-1.056340","latitude":"51.324571","type":"violence","detail":"Violence and sexual offences","location":"On or near Beckett Gardens","distance":-1},{"id":"60395c8f222df6b0a9fb57af14010466dea7205063524f40b152f78a898407c6","longitude":"-1.055793","latitude":"51.323281","type":"violence","detail":"Violence and sexual offences","location":"On or near Hills Way","distance":-1},{"id":"fb50fa999ce80b3ecdf55133425b9b2c70f7d0bf79fd1ea77af72d09ec19eddf","longitude":"-1.056633","latitude":"51.330580","type":"violence","detail":"Violence and sexual offences","location":"On or near Strawberry Fields","distance":-1},{"id":"6c3a5e2fcb231691f9e0d35404d58891d93476f440e358f49e110bb083b67594","longitude":"-1.055793","latitude":"51.323281","type":"violence","detail":"Violence and sexual offences","location":"On or near Hills Way","distance":-1},{"id":"044a34ea4b1902c27c5269b055eeb8b9417b71685169a91ba93f257efcd4cce1","longitude":"-1.056340","latitude":"51.324571","type":"violence","detail":"Violence and sexual offences","location":"On or near Beckett Gardens","distance":-1},{"id":"16e24bb10893c2137647097c9f7d0b736aad50049e6bd9d23e7e49d6c244d374","longitude":"-1.059258","latitude":"51.332795","type":"violence","detail":"Violence and sexual offences","location":"On or near Moat Close","distance":-1},{"id":"295342ed8fbd3d76ed0b56edea82b6df3537d070b9b7caf692cb5e460e9ce374","longitude":"-1.006362","latitude":"51.318223","type":"theft","detail":"Burglary","location":"On or near Park/Open Space","distance":-1},{"id":"e6d623b238a2e6edc637bf4d2e6d0a8a695d183a5b0b78ae586d82a53401b64b","longitude":"-1.002330","latitude":"51.327469","type":"theft","detail":"Burglary","location":"On or near Petrol Station","distance":-1},{"id":"bfc42d4ed641ccd20cfdfd4fcadde689a85e91c5a9e26e6285a03fe9c2385cfd","longitude":"-1.033337","latitude":"51.303306","type":"violence","detail":"Violence and sexual offences","location":"On or near Moulshay Lane","distance":-1},{"id":"0a5c66943191b14364e12034dd3c9a547990be4169007534fabf06bb0997c343","longitude":"-1.033337","latitude":"51.303306","type":"violence","detail":"Violence and sexual offences","location":"On or near Moulshay Lane","distance":-1},{"id":"b5687d4db5f200b0213570284a45993dfb9c4f9a27635817a7d7674f0e5ba47a","longitude":"-1.006362","latitude":"51.318223","type":"violence","detail":"Violence and sexual offences","location":"On or near Park/Open Space","distance":-1},{"id":"aa917ae8c39d4b03adacd0dfd9b7b4ec769896962432405c38dccbd5c3ae2325","longitude":"-1.006362","latitude":"51.318223","type":"other","detail":"Other crime","location":"On or near Park/Open Space","distance":-1},{"id":"423fddda817740b81bb2084c4ca3242997ea6ba884879aafef77904fa429f6d8","longitude":"-1.002330","latitude":"51.327469","type":"other","detail":"Other crime","location":"On or near Petrol Station","distance":-1},{"id":"3569ff4d995a12c717c5e5acc58186a3f7423857b5e7e3a63921d500a93644c8","longitude":"-1.062122","latitude":"51.328880","type":"theft","detail":"Other theft","location":"On or near Ellen Gardens","distance":-1},{"id":"7f626ca69b51130296ed40ecc5dc5b36c8c42f453a2716d503db69803114b05d","longitude":"-1.077419","latitude":"51.323354","type":"violence","detail":"Possession of weapons","location":"On or near Vyne Road","distance":-1},{"id":"e63205c31542cbed041b6b3729ec7d7297b2b5bd1f00a9c78f7539dd0cd024d5","longitude":"-1.064997","latitude":"51.330782","type":"public order","detail":"Public order","location":"On or near Sports/Recreation Area","distance":-1},{"id":"c282cd2e3ac19f9c2e8ba224813c26cf301c95e720a71a4b95ad8a8fb08bb032","longitude":"-1.062256","latitude":"51.330751","type":"violence","detail":"Violence and sexual offences","location":"On or near Oakmead","distance":-1},{"id":"0d6b9a2babcd9b199359b748bf82ba2bedf53bf7c8cdf860395e6b5b819c7f69","longitude":"-1.056045","latitude":"51.299823","type":"violence","detail":"Violence and sexual offences","location":"On or near Hanmore Road","distance":-1},{"id":"b4b5fd165071a480a9ce4a124150096a53bbb3c1afc23ca7ecae8d7683a84d4e","longitude":"-1.056045","latitude":"51.299823","type":"violence","detail":"Violence and sexual offences","location":"On or near Hanmore Road","distance":-1},{"id":"f7a254c747b19f7f455837faa2e7477f2347e085d77e08ebc0986c3391aa45ec","longitude":"-1.062256","latitude":"51.330751","type":"violence","detail":"Violence and sexual offences","location":"On or near Oakmead","distance":-1},{"id":"95fd610e391bd0f66e64a0015e851183693fe99cb542fd70dac507b31ea3b3c9","longitude":"-1.153110","latitude":"51.319268","type":"violence","detail":"Violence and sexual offences","location":"On or near The Common","distance":-1},{"id":"cd6d52a8a4b35ffc3c85e0405858399cab6d838a05561fbd8a6bff5c1a871b2f","longitude":"-1.108967","latitude":"51.293475","type":"violence","detail":"Violence and sexual offences","location":"On or near Tyfield","distance":-1},{"id":"d80f92381d11856d4f0d090741d9855b096dedb20f6eb67accd72a704f2583a5","longitude":"-1.108967","latitude":"51.293475","type":"violence","detail":"Violence and sexual offences","location":"On or near Tyfield","distance":-1},{"id":"9fae4830f0f43af26b945a16bf7fc1d19e35bbf400a2ffdecf971cb75130ffd1","longitude":"-1.045466","latitude":"51.297417","type":"violence","detail":"Criminal damage and arson","location":"On or near Foxs Furlong","distance":-1},{"id":"b9a4f5e64076a174ac94a2de3c77af849ca2afdbc19e91f6153228466173d1da","longitude":"-1.051878","latitude":"51.301561","type":"public order","detail":"Public order","location":"On or near Stanswood Grange","distance":-1},{"id":"dab89d12fba4b6869eafe8b5b026de536d3812df86f496f25066e2d29f53b984","longitude":"-1.051878","latitude":"51.301561","type":"violence","detail":"Violence and sexual offences","location":"On or near Stanswood Grange","distance":-1},{"id":"838e92cf4c8370d8b15f5d1feb3459a69d16f971f7288f88a5c911ae8ca09937","longitude":"-1.049255","latitude":"51.301467","type":"violence","detail":"Violence and sexual offences","location":"On or near Rowner Crescent","distance":-1},{"id":"bf750471381d0a2e2b53ab5cdfcb31c2b23bd176e43268f092296ba494815a19","longitude":"-1.051878","latitude":"51.301561","type":"violence","detail":"Violence and sexual offences","location":"On or near Stanswood Grange","distance":-1},{"id":"9dd107cb3bf86a28996a5f740c28576f097954024101d7a912a0e8bef45b453b","longitude":"-1.051256","latitude":"51.294865","type":"theft","detail":"Shoplifting","location":"On or near Guinea Court","distance":-1},{"id":"67ef92fb4f08d64662931951452800bef28cfe3feaac9a14b8b8d799301ff621","longitude":"-1.051256","latitude":"51.294865","type":"theft","detail":"Vehicle crime","location":"On or near Guinea Court","distance":-1},{"id":"07f7bf048e60ffecfd2e25957938572904fa347698bdac7e735e865a8e9f1414","longitude":"-1.058038","latitude":"51.297042","type":"violence","detail":"Violence and sexual offences","location":"On or near Achilles Close","distance":-1},{"id":"e0dbdb6de15312faf5c125d62f99c2cb577a95e037c7958d34d0645c8a0d3ad1","longitude":"-1.051297","latitude":"51.294263","type":"violence","detail":"Violence and sexual offences","location":"On or near Thornhill Way","distance":-1},{"id":"a02a99f71414ac22fc1e1f7e8eeb7c84475310c86c12ff43c9a89dfc74793c7b","longitude":"-1.054466","latitude":"51.292185","type":"violence","detail":"Possession of weapons","location":"On or near Nursery Close","distance":-1},{"id":"7808fef86bea9c78e2af3bfce4ebd4b6de8a5272ee8e1e691ae243a419223766","longitude":"-1.045475","latitude":"51.295583","type":"public order","detail":"Public order","location":"On or near Longstock Close","distance":-1},{"id":"5c3ba08dd492f9858240f37455a694cd1233566ede174f942a0890a1a147ff52","longitude":"-1.045475","latitude":"51.295583","type":"public order","detail":"Vehicle crime","location":"On or near Longstock Close","distance":-1},{"id":"b62b1540bdc47ad2613c53f6c5aeaf1e56813081545fb422635b265f44514be6","longitude":"-1.050169","latitude":"51.290522","type":"public order","detail":"Vehicle crime","location":"On or near Lanes End","distance":-1},{"id":"d5b659319ac592ce4cb7438f44f2f2f50dc42ee32b0fb4b8d07aa78b74ea8747","longitude":"-1.046467","latitude":"51.296850","type":"violence","detail":"Violence and sexual offences","location":"On or near Stockbridge Close","distance":-1},{"id":"bd0f90aa101573cb4c108cb6bc97322ff8d39fa31289e483fda874f09614b508","longitude":"-1.046467","latitude":"51.296850","type":"violence","detail":"Violence and sexual offences","location":"On or near Stockbridge Close","distance":-1},{"id":"977a53400f94a6cb79bba7ede21fdb45bc5884cdf21cbc4937d16430a6a65994","longitude":"-1.081857","latitude":"51.287205","type":"violence","detail":"Possession of weapons","location":"On or near Dominica Close","distance":-1},{"id":"150fb5e24cb2c5a6fe68ff8068e4221196691ab8b87a550dba757fffb7dec2c4","longitude":"-1.081638","latitude":"51.288121","type":"violence","detail":"Violence and sexual offences","location":"On or near Tasmania Close","distance":-1},{"id":"83bda083d0080439f10f60b05ae8e6050522f323133cdb17905cffa95cfabb96","longitude":"-1.081857","latitude":"51.287205","type":"violence","detail":"Violence and sexual offences","location":"On or near Dominica Close","distance":-1},{"id":"34a9d2082c2dcc4434ccd2c330a11f8e9145db1d58b82a63750673fea430c3da","longitude":"-1.081857","latitude":"51.287205","type":"violence","detail":"Violence and sexual offences","location":"On or near Dominica Close","distance":-1},{"id":"4c07e05d3f8b9a38cb72a54e60faf6faa26b580a985ee512cef440ac41d9bc74","longitude":"-1.081857","latitude":"51.287205","type":"violence","detail":"Violence and sexual offences","location":"On or near Dominica Close","distance":-1},{"id":"38a415aa3dbf9e75bcff68080b6cf82caee9e60a3aa3676a252b7f278658c6c2","longitude":"-1.081857","latitude":"51.287205","type":"violence","detail":"Violence and sexual offences","location":"On or near Dominica Close","distance":-1},{"id":"8100b2028c02a2a45c18ad872b1734ec434ecd542db453eee1b216bd33d94c37","longitude":"-1.080573","latitude":"51.284731","type":"violence","detail":"Violence and sexual offences","location":"On or near Gilbert Close","distance":-1},{"id":"9c86b23d5a12c272d82b0ff74edfdd33061501e4805ade8792c56a1a81e79bed","longitude":"-1.081638","latitude":"51.288121","type":"violence","detail":"Violence and sexual offences","location":"On or near Tasmania Close","distance":-1},{"id":"b8c2d25271c7953eaa3bc7c0454e67724ba51161ac81aec9e39adb5a9d6549da","longitude":"-1.078504","latitude":"51.283474","type":"theft","detail":"Burglary","location":"On or near Popley Way","distance":-1},{"id":"34dc5975bf2b8c4de00568baa17aaf85887ef6ef9156cd681882c06bbe3ce5a8","longitude":"-1.086039","latitude":"51.285296","type":"theft","detail":"Burglary","location":"On or near Tobago Close","distance":-1},{"id":"f137ac987401ac082bd1a7c1e33dc361c7577477f5fd6401717d9a5dc68d663f","longitude":"-1.079510","latitude":"51.279786","type":"violence","detail":"Criminal damage and arson","location":"On or near Marlowe Close","distance":-1},{"id":"58acd1c3b5c8f58cf8550f2c16a389a72f8306f84715bbfb940e2380ca6a0904","longitude":"-1.080285","latitude":"51.283326","type":"violence","detail":"Criminal damage and arson","location":"On or near Mallory Road","distance":-1},{"id":"d5f2bd0c634a8944ad41bf4908b173f864a8e430fd201383213de2e955c58458","longitude":"-1.082039","latitude":"51.280211","type":"violence","detail":"Criminal damage and arson","location":"On or near Browning Close","distance":-1},{"id":"60149b168eff8392b0e663588b36b1767c2bdbcc5c6d6f999bd167144a0c96e9","longitude":"-1.078504","latitude":"51.283474","type":"violence","detail":"Criminal damage and arson","location":"On or near Popley Way","distance":-1},{"id":"43a7c27e2f7143a3a6b087e29a9bae4d0dfaa1417fe459eb1dec4cef26175a5a","longitude":"-1.082039","latitude":"51.280211","type":"violence","detail":"Criminal damage and arson","location":"On or near Browning Close","distance":-1},{"id":"13663565c06ca58a17461e46990ad8396d96cb63ac1ff9ab8535142d1ccc8e88","longitude":"-1.076680","latitude":"51.282920","type":"public order","detail":"Public order","location":"On or near Pedestrian Subway","distance":-1},{"id":"04eddfc9e0e35af20d1ab3913db4b468a7d914f68c0a504423e0661b4151f28b","longitude":"-1.082039","latitude":"51.280211","type":"violence","detail":"Violence and sexual offences","location":"On or near Browning Close","distance":-1},{"id":"c09cd2f734b4d4b291d88ac0d4526858b111efda23097b35a172fa827674a02f","longitude":"-1.078504","latitude":"51.283474","type":"violence","detail":"Violence and sexual offences","location":"On or near Popley Way","distance":-1},{"id":"dff3add15227a3b88f4253def73dde87b58796dcf826ded4d498ac5657a84c90","longitude":"-1.083261","latitude":"51.284393","type":"violence","detail":"Violence and sexual offences","location":"On or near Pedestrian Subway","distance":-1},{"id":"f6015d77f27caeece37bb96f949ac8227d3bd8ae80756dd55651f28a0c90f3bd","longitude":"-1.079510","latitude":"51.279786","type":"violence","detail":"Violence and sexual offences","location":"On or near Marlowe Close","distance":-1},{"id":"09d2d17a2d24dd1d008e8a9317c77b4f0dc2060cbe7bf945d98a7e702f3aac3e","longitude":"-1.086039","latitude":"51.285296","type":"violence","detail":"Violence and sexual offences","location":"On or near Tobago Close","distance":-1},{"id":"a4fe843cf5534eda41272c27e9dc7cd0b7c6e900f214f8486f0ca106407eceef","longitude":"-1.076680","latitude":"51.282920","type":"violence","detail":"Violence and sexual offences","location":"On or near Pedestrian Subway","distance":-1},{"id":"3d7ff5fe8ddd61ff2365de96e9fae0656c8db308fd6c210e858f514cf10aa770","longitude":"-1.083261","latitude":"51.284393","type":"violence","detail":"Violence and sexual offences","location":"On or near Pedestrian Subway","distance":-1},{"id":"dda86de919d7c1a67b63367accb2b33b0a095ed74605f2d6ebbc63d3547fb7af","longitude":"-1.086039","latitude":"51.285296","type":"violence","detail":"Violence and sexual offences","location":"On or near Tobago Close","distance":-1},{"id":"b93270dd955d545d9ac742972177fb3eee30bd98e35a538320c9579dc93f1896","longitude":"-1.080285","latitude":"51.283326","type":"violence","detail":"Violence and sexual offences","location":"On or near Mallory Road","distance":-1},{"id":"84eae60d45bd702519e2a9272736aff573e0ed9fcb1344e830a423d694c19b9b","longitude":"-1.086039","latitude":"51.285296","type":"violence","detail":"Violence and sexual offences","location":"On or near Tobago Close","distance":-1},{"id":"ca00f28821be7310a033deff9a1c144b740fd92720d2ce39a748fae7e3628df9","longitude":"-1.082039","latitude":"51.280211","type":"violence","detail":"Violence and sexual offences","location":"On or near Browning Close","distance":-1},{"id":"ad55e69739c3f98a89be83386b79f8f556e5937aba20f1b11387e21c43e58d6a","longitude":"-1.078504","latitude":"51.283474","type":"violence","detail":"Violence and sexual offences","location":"On or near Popley Way","distance":-1},{"id":"2a48d710be5be7675c0a9eb6db78deb9e87f1753497a8a4593619f736bb2aea9","longitude":"-1.080850","latitude":"51.283780","type":"violence","detail":"Violence and sexual offences","location":"On or near Edmund Court","distance":-1},{"id":"f937576443e56555c1ec43468a44aa478b998ca838719f8d025c66b51ebd1f56","longitude":"-1.086039","latitude":"51.285296","type":"violence","detail":"Violence and sexual offences","location":"On or near Tobago Close","distance":-1},{"id":"b00f35ee516f464d29c413a7e63ea8f9dfde4c40ec8429d5f054a7d340bc23b2","longitude":"-1.106753","latitude":"51.278990","type":"theft","detail":"Burglary","location":"On or near Priestley Road","distance":-1},{"id":"db23c562fc4f15ed0431078fdbc70270aa61de4ce39439c770272fe40a5949d3","longitude":"-1.100933","latitude":"51.280384","type":"theft","detail":"Burglary","location":"On or near Parking Area","distance":-1},{"id":"233a46c53eb2435f785c03403788b41c4e9a523dbcc7ca86a121da9f31b0fbee","longitude":"-1.100933","latitude":"51.280384","type":"violence","detail":"Criminal damage and arson","location":"On or near Parking Area","distance":-1},{"id":"a5c7d786c460d02060950423ad871999c15cdec83e51201a47bc6b8882152b97","longitude":"-1.100933","latitude":"51.280384","type":"theft","detail":"Other theft","location":"On or near Parking Area","distance":-1},{"id":"77954a9e4359ced20f7f2a7c351e5257a257276b90b3b8e5dc10a304c6ac9a2d","longitude":"-1.098325","latitude":"51.281066","type":"theft","detail":"Other theft","location":"On or near Tintern Close","distance":-1},{"id":"da1f7aceebe4491fc30cbb293f05e2f0d1b3ebb72d7615ad409191f003874468","longitude":"-1.105476","latitude":"51.280491","type":"theft","detail":"Other theft","location":"On or near Pedestrian Subway","distance":-1},{"id":"dec88dbd6f7ccf67a2807b58de6db9d71f6419b70c26f2bfb950f7f0cb2b2c00","longitude":"-1.105618","latitude":"51.276877","type":"violence","detail":"Violence and sexual offences","location":"On or near Pedestrian Subway","distance":-1},{"id":"708a905c1f3d38e985944665e4ff028abe812e6a2a117b78f53fb77456dc7d6f","longitude":"-1.096782","latitude":"51.282250","type":"violence","detail":"Violence and sexual offences","location":"On or near Buckfast Close","distance":-1},{"id":"460f82aade4e1a3cdef6d8d74038c46e2208810f1f86f8a3f955c6ef5333f29b","longitude":"-1.098325","latitude":"51.281066","type":"violence","detail":"Violence and sexual offences","location":"On or near Tintern Close","distance":-1},{"id":"a0fb8d40911e30131ad48e37d2aec94c0e338c3101a89c9b596fefc1b3ff28e7","longitude":"-1.105476","latitude":"51.280491","type":"violence","detail":"Violence and sexual offences","location":"On or near Pedestrian Subway","distance":-1},{"id":"c43bbb6e031b32e2af1ff4b591ca025cf59d3d406ffd4c2b0bc1fdf330d7b1e6","longitude":"-1.098325","latitude":"51.281066","type":"violence","detail":"Violence and sexual offences","location":"On or near Tintern Close","distance":-1},{"id":"0437cb18fbaa81db2d5a6766e2d3552c3c8fb484c13234de4dcc3765f0e699a7","longitude":"-1.105476","latitude":"51.280491","type":"violence","detail":"Violence and sexual offences","location":"On or near Pedestrian Subway","distance":-1},{"id":"9a1c287c68e05ff779a20d86da6102d4ff2b040e6c579ec114e91d3ad408c731","longitude":"-1.094999","latitude":"51.282497","type":"violence","detail":"Violence and sexual offences","location":"On or near Romsey Close","distance":-1},{"id":"51a7b3983d033d731cbd8862657e1c7472728926202fa40b50ba9121bae9e199","longitude":"-1.096782","latitude":"51.282250","type":"violence","detail":"Violence and sexual offences","location":"On or near Buckfast Close","distance":-1},{"id":"69c00071884af3ccbb337143667acc7c82e4688c997e91dd6059b005bb5e9946","longitude":"-1.105476","latitude":"51.280491","type":"violence","detail":"Violence and sexual offences","location":"On or near Pedestrian Subway","distance":-1},{"id":"859e5a46afd04b1ee7b00b007417a08253def25c6ca0222c1365fab22ffc407e","longitude":"-1.098325","latitude":"51.281066","type":"violence","detail":"Violence and sexual offences","location":"On or near Tintern Close","distance":-1},{"id":"179e6e40922f688f02cc4ec4ebbd90dde02045e8943b3b452208a1c4ccc7b868","longitude":"-1.105476","latitude":"51.280491","type":"violence","detail":"Violence and sexual offences","location":"On or near Pedestrian Subway","distance":-1},{"id":"c8db5c7372296a5eec2a0f00cbc45a530e1eacd0337e2b31fdbef8bb613b6647","longitude":"-1.094295","latitude":"51.280369","type":"violence","detail":"Violence and sexual offences","location":"On or near Abbey Road","distance":-1},{"id":"eedd177968ab925c91690a83b7c48c8013c5a1812d7dcb66d3c66c44cd2c2101","longitude":"-1.098325","latitude":"51.281066","type":"other","detail":"Other crime","location":"On or near Tintern Close","distance":-1},{"id":"3f766779cbe930764c982ea87865a9cd688c9bccd46b5396c0c1140465bdf73f","longitude":"-1.098325","latitude":"51.281066","type":"other","detail":"Other crime","location":"On or near Tintern Close","distance":-1},{"id":"29b0f0f91fb63fc99b47c7d294ecf255b46bb7a6f056899870ad035cb42cc26e","longitude":"-1.087555","latitude":"51.289839","type":"violence","detail":"Criminal damage and arson","location":"On or near Hewitt Road","distance":-1},{"id":"9c2108fdf6c86bcf5df59048024a2b607c44f602429306c5fdeaf06eeda8c25c","longitude":"-1.087555","latitude":"51.289839","type":"theft","detail":"Other theft","location":"On or near Hewitt Road","distance":-1},{"id":"fedbd54446bcc1bd50c17492020ec6f24c6d2f79ccf3e1b9a5e698c8f40989f6","longitude":"-1.090808","latitude":"51.288498","type":"theft","detail":"Other theft","location":"On or near Hutchins Way","distance":-1},{"id":"ee02a89ae5aafc98193a862ae4e54395fba9d3a8729c5f316eeb8e35756109eb","longitude":"-1.088309","latitude":"51.289432","type":"theft","detail":"Other theft","location":"On or near Gardiner Road","distance":-1},{"id":"188a41cf58d248f24036e63729a81c39205dd6f30bc1ac6ee368daf080e9afd8","longitude":"-1.088309","latitude":"51.289432","type":"theft","detail":"Other theft","location":"On or near Gardiner Road","distance":-1},{"id":"ab7e26f0d7b12ca0b397efb53b3f045b9dc915168d9db9a6c779b4a8cc6edb90","longitude":"-1.092087","latitude":"51.288355","type":"public order","detail":"Public order","location":"On or near Carter Drive","distance":-1},{"id":"a8a52f39ae013459373dd3383c983e7535d02b842577dd7e7969b2c1b0deadad","longitude":"-1.092087","latitude":"51.288355","type":"public order","detail":"Public order","location":"On or near Carter Drive","distance":-1},{"id":"ee7967059066f7a1b502d24e15c984884ff763b89b6f4fcca4925c7e2ea8dde0","longitude":"-1.085721","latitude":"51.288297","type":"violence","detail":"Violence and sexual offences","location":"On or near Isley Road","distance":-1},{"id":"2ae4f420c8fffb37c0c698cebeddb095dce394ee402e339964d8dfd4108fe4bc","longitude":"-1.088237","latitude":"51.287983","type":"violence","detail":"Violence and sexual offences","location":"On or near Englefield Way","distance":-1},{"id":"5381fad4961edeefc5accf9085d6e97ed773e00772d09bbb8be4a01773a6333c","longitude":"-1.092087","latitude":"51.288355","type":"violence","detail":"Violence and sexual offences","location":"On or near Carter Drive","distance":-1},{"id":"517d1ae0e9eecf79d8d5f5d888035c08cc4b6c9a897ffe4d4adba7148bd6c193","longitude":"-1.088237","latitude":"51.287983","type":"violence","detail":"Violence and sexual offences","location":"On or near Englefield Way","distance":-1},{"id":"800bfb315177ebb83ab814975f0429631dcf4c1f6fe6645aec48f2e15d41cca4","longitude":"-1.088237","latitude":"51.287983","type":"violence","detail":"Violence and sexual offences","location":"On or near Englefield Way","distance":-1},{"id":"95317469e34aeed36ab195187c63779efd053bcbadedfbd75815f37387154ee5","longitude":"-1.085721","latitude":"51.288297","type":"violence","detail":"Violence and sexual offences","location":"On or near Isley Road","distance":-1},{"id":"0e7ad44ab77f535b2f71c6d5011e55a1cf498ac4f72daf74d6cf6670b61b366b","longitude":"-1.092087","latitude":"51.288355","type":"violence","detail":"Violence and sexual offences","location":"On or near Carter Drive","distance":-1},{"id":"9fb3d6f6ac59ae8b8be5e887ed5f8d30dfb93c5fd08ba631564bfbe442c5316d","longitude":"-1.090808","latitude":"51.288498","type":"violence","detail":"Violence and sexual offences","location":"On or near Hutchins Way","distance":-1},{"id":"c8cd1ef3748a4fd702cd79913ea77a724f42e5ed49a54ef1da346657805a31a8","longitude":"-1.087555","latitude":"51.289839","type":"violence","detail":"Violence and sexual offences","location":"On or near Hewitt Road","distance":-1},{"id":"5432b9ef7ac15a92563b8d5a1ba41aacffad8dd38e05c6e4d1662f21c2905493","longitude":"-1.089868","latitude":"51.288167","type":"violence","detail":"Violence and sexual offences","location":"On or near Appleton Drive","distance":-1},{"id":"6657815f3bd9ffcb7f15f08489678b6b4720009c7aa89b26897ed45a69a18336","longitude":"-1.085721","latitude":"51.288297","type":"violence","detail":"Violence and sexual offences","location":"On or near Isley Road","distance":-1},{"id":"659eceaec56d9d3d8f99f31b245490b1a3c869b16a5c8c4563f0dfc5998d9b16","longitude":"-1.090808","latitude":"51.288498","type":"violence","detail":"Violence and sexual offences","location":"On or near Hutchins Way","distance":-1},{"id":"cb54c5f9e266b87a1e60457e5db49948db487f67e12678aab88c78aade46bd3b","longitude":"-1.085721","latitude":"51.288297","type":"violence","detail":"Violence and sexual offences","location":"On or near Isley Road","distance":-1},{"id":"cb01ef940a3cfb860d5a57a9d238e2c65eb3f9e562b2077f9de11551c7c3cd2e","longitude":"-1.088309","latitude":"51.289432","type":"other","detail":"Other crime","location":"On or near Gardiner Road","distance":-1},{"id":"71f3e80b506d2b1272148b0fb8b6e4d0e136b0b8703ae008ed897085b2ddd04c","longitude":"-1.087369","latitude":"51.282590","type":"theft","detail":"Burglary","location":"On or near Tewkesbury Close","distance":-1},{"id":"b2b2f4decf1550d8190218029b504c520768adf4564c2f9fe36fd4606f898c7f","longitude":"-1.093731","latitude":"51.285715","type":"violence","detail":"Criminal damage and arson","location":"On or near Faringdon Court","distance":-1},{"id":"6376299001cae37763401dec118372f29993125a754173c4e19e131b762a2687","longitude":"-1.092587","latitude":"51.282622","type":"public order","detail":"Drugs","location":"On or near Fountains Close","distance":-1},{"id":"11bd3486e7bea750ee16947e2fcfa05865a7ce7ad1ec6d419afa93b992a95c31","longitude":"-1.098415","latitude":"51.283773","type":"theft","detail":"Other theft","location":"On or near Don Allen Drive","distance":-1},{"id":"c73280c545e5d638c178f674a1c509c309f8ed4635b8f054ce0bb46bca44286f","longitude":"-1.091626","latitude":"51.283379","type":"public order","detail":"Public order","location":"On or near Pedestrian Subway","distance":-1},{"id":"3bd2e4d9fe947de9d563604c6acff9882ee1a928f4fc561fe76c9eb02ceeeed0","longitude":"-1.095423","latitude":"51.285000","type":"public order","detail":"Public order","location":"On or near Marston Walk","distance":-1},{"id":"a7c7fcc3376525688d93c5b6ad1185d37f160b083730f2900bae57902fffa388","longitude":"-1.082977","latitude":"51.280641","type":"violence","detail":"Robbery","location":"On or near Shakespeare Road","distance":-1},{"id":"740e078be2ea90447a5a5fd96d8848cf0229cc9fb2c5334b4cfc80679697776f","longitude":"-1.082977","latitude":"51.280641","type":"violence","detail":"Robbery","location":"On or near Shakespeare Road","distance":-1},{"id":"9097b3fb0e262076599dc0a2f31f4f25ae030b8784c2773045f65873a93f5850","longitude":"-1.092587","latitude":"51.282622","type":"violence","detail":"Violence and sexual offences","location":"On or near Fountains Close","distance":-1},{"id":"bd689bf4b2ac87eaebe7f72ccb5c7bbb416a7205769145c59094d969672f69dc","longitude":"-1.087369","latitude":"51.282590","type":"violence","detail":"Violence and sexual offences","location":"On or near Tewkesbury Close","distance":-1},{"id":"da622a744ea308af9a79d56f97aa576370c8062951d860f9cb26b7965e6a26f1","longitude":"-1.092587","latitude":"51.282622","type":"violence","detail":"Violence and sexual offences","location":"On or near Fountains Close","distance":-1},{"id":"92e19e43a20a42dd9d6a2e5575b1109bd99b6609269edd22405f17f2c5ea9950","longitude":"-1.092587","latitude":"51.282622","type":"violence","detail":"Violence and sexual offences","location":"On or near Fountains Close","distance":-1},{"id":"6a55ed7fd95f6b0c920951d3361cd977e5955055f0d9a28e9521e5e485390256","longitude":"-1.092587","latitude":"51.282622","type":"violence","detail":"Violence and sexual offences","location":"On or near Fountains Close","distance":-1},{"id":"6999ebf78035cd337c9a7151d8e20d9ee631034dc55d2c7c31fd7f844a4a4fbc","longitude":"-1.095423","latitude":"51.285000","type":"violence","detail":"Violence and sexual offences","location":"On or near Marston Walk","distance":-1},{"id":"c58fcd9522cd64271d14484fd6770580042bc0fea4273513c1622be74ead43d8","longitude":"-1.086006","latitude":"51.282634","type":"violence","detail":"Violence and sexual offences","location":"On or near Pershore Road","distance":-1},{"id":"878d75fcd9c8be51b36a8bfaa8b8f3f25d724c1bb8c1cc85c4cf8ad1a9484582","longitude":"-1.092587","latitude":"51.282622","type":"violence","detail":"Violence and sexual offences","location":"On or near Fountains Close","distance":-1},{"id":"410c47f72466c6a9d8ff641a3c8890f6aaaac27019c74142dbd183127311b910","longitude":"-1.092587","latitude":"51.282622","type":"violence","detail":"Violence and sexual offences","location":"On or near Fountains Close","distance":-1},{"id":"47b4d52191b83474ded16fc09661a91683c3022cacec0774b47abea9854ed219","longitude":"-1.092587","latitude":"51.282622","type":"violence","detail":"Violence and sexual offences","location":"On or near Fountains Close","distance":-1},{"id":"d9bc42cc59518534477755f9b6db10c3155fbfa75993dcb399f160ac4b1a222b","longitude":"-1.092587","latitude":"51.282622","type":"violence","detail":"Violence and sexual offences","location":"On or near Fountains Close","distance":-1},{"id":"ef5714a477ff55b38c4aeed156acc22557abf898221e13df5531ef329048f63f","longitude":"-1.092587","latitude":"51.282622","type":"violence","detail":"Violence and sexual offences","location":"On or near Fountains Close","distance":-1},{"id":"5a429cd337e2d06acf1c3562cf9b3baeda19e00139c815f3854edaaa64432538","longitude":"-1.087369","latitude":"51.282590","type":"violence","detail":"Violence and sexual offences","location":"On or near Tewkesbury Close","distance":-1},{"id":"ae5e4adef533726017b0de92cf6dad42d15bc27c0b97ceb9d5177a52ac75001a","longitude":"-1.068145","latitude":"51.293032","type":"theft","detail":"Burglary","location":"On or near Crockford Lane","distance":-1},{"id":"0a2b8ad3a8b1d5477cc327b71f41bfce0415c95898cbd258a03ff068b478da0d","longitude":"-1.072252","latitude":"51.280682","type":"theft","detail":"Burglary","location":"On or near Pedestrian Subway","distance":-1},{"id":"c57317623fd6d4982737b9f421095413accc0286906612a414e7e0c38fee7eb8","longitude":"-1.079412","latitude":"51.286826","type":"violence","detail":"Criminal damage and arson","location":"On or near Falkland Road","distance":-1},{"id":"32c05d072df56033cce7b3420c7e12e00cb47ef9501df89981993edfe57595f3","longitude":"-1.073662","latitude":"51.282555","type":"violence","detail":"Criminal damage and arson","location":"On or near Faroe Close","distance":-1},{"id":"890e03255780ac04c815d7f0dd02363d05190b8f2069e16c3fdff6b66b3c2869","longitude":"-1.072847","latitude":"51.281748","type":"public order","detail":"Public order","location":"On or near Pedestrian Subway","distance":-1},{"id":"f5cb2982465c233f0c788e693dce25eebe4dee66747f18eb8a248349b780e862","longitude":"-1.074968","latitude":"51.283231","type":"public order","detail":"Public order","location":"On or near Lundy Close","distance":-1},{"id":"a75170578df6597b28886a3d5c52850fdf9971f4b8068bf63fe4ea905cd1ad74","longitude":"-1.072206","latitude":"51.283640","type":"violence","detail":"Violence and sexual offences","location":"On or near Orkney Close","distance":-1},{"id":"e60541e8323310af5e914db0c5a1e1741800163a7792da4a856ecb86f7aae35b","longitude":"-1.072206","latitude":"51.283640","type":"violence","detail":"Violence and sexual offences","location":"On or near Orkney Close","distance":-1},{"id":"c12a11144e91b7954ce286368a405794c3d9130720081854fd5da1e3fa2788db","longitude":"-1.073662","latitude":"51.282555","type":"violence","detail":"Violence and sexual offences","location":"On or near Faroe Close","distance":-1},{"id":"6215e09f236737f424bea46c80082b47785140aa73681ab06d745e1256f8b1cc","longitude":"-1.077842","latitude":"51.280016","type":"violence","detail":"Violence and sexual offences","location":"On or near Shelley Close","distance":-1},{"id":"a42826b5fba3ae9a6d05db83f1c4088691735b71e25e178a6c2e67e8aa5de1ce","longitude":"-1.076810","latitude":"51.281447","type":"violence","detail":"Violence and sexual offences","location":"On or near Keats Close","distance":-1},{"id":"18c5239432a67a02cfa1e343af84799ceb6240a56484b6128745ecab1d5f18db","longitude":"-1.076810","latitude":"51.281447","type":"violence","detail":"Violence and sexual offences","location":"On or near Keats Close","distance":-1},{"id":"7555da0c8035f331775bbf3e1db5345a4d47159fb15201c0959621f7ea558e52","longitude":"-1.072847","latitude":"51.281748","type":"violence","detail":"Violence and sexual offences","location":"On or near Pedestrian Subway","distance":-1},{"id":"b4c437f503087e41fd9813e0870f769dc5272e9fcba7f920c679b8677bb709fb","longitude":"-1.072206","latitude":"51.283640","type":"violence","detail":"Violence and sexual offences","location":"On or near Orkney Close","distance":-1},{"id":"2aa154236129abd1e8e15286df552d8ddee81b00580cc527f908868bff6af6cf","longitude":"-1.072206","latitude":"51.283640","type":"violence","detail":"Violence and sexual offences","location":"On or near Orkney Close","distance":-1},{"id":"970b7d193ceb4fe2df3303420b88cdfc2eb9c7857320f3cc12f36a41218adff3","longitude":"-1.073662","latitude":"51.282555","type":"violence","detail":"Violence and sexual offences","location":"On or near Faroe Close","distance":-1},{"id":"a7e4c59d968eebb537e0ca29b9bb64b3b9081204e52d0b22459811da01f8decb","longitude":"-1.073662","latitude":"51.282555","type":"other","detail":"Other crime","location":"On or near Faroe Close","distance":-1},{"id":"ccb1c5bc2bb1e0168d5901d295212d69e543c707cd86e588a2227651a0c981d7","longitude":"-1.060751","latitude":"51.279332","type":"theft","detail":"Burglary","location":"On or near Badger'S Bank","distance":-1},{"id":"95e18150c21f5dae221109001a375017416552151f9aebebab7f560aeb4988d7","longitude":"-1.060751","latitude":"51.279332","type":"theft","detail":"Vehicle crime","location":"On or near Badger'S Bank","distance":-1},{"id":"2db992ef1c21ed608f86c596592bcd072f4c2c28d67a401fca1b5b74fb8d8bc6","longitude":"-1.060751","latitude":"51.279332","type":"violence","detail":"Violence and sexual offences","location":"On or near Badger'S Bank","distance":-1},{"id":"4dce1ad94ac07a15d77264a39f1287c24ad08c77525e594d5785b07e0e4573d2","longitude":"-1.060751","latitude":"51.279332","type":"violence","detail":"Violence and sexual offences","location":"On or near Badger'S Bank","distance":-1},{"id":"25c3095ffaad0712a59f2cbbdb0862ade96bf0e87664170cfa1387d65e13c734","longitude":"-1.059016","latitude":"51.272331","type":"public order","detail":"Public order","location":"On or near Swing Swang Lane","distance":-1},{"id":"3b113f989f95f4e3ce6ff03644b3b667d807dc02bb0117d28c0b67c127d24170","longitude":"-1.059016","latitude":"51.272331","type":"public order","detail":"Public order","location":"On or near Swing Swang Lane","distance":-1},{"id":"5d32a9e6c4ec036722ec32eb0636ff28f319215a8fca5b597180a867faef5dc2","longitude":"-1.058201","latitude":"51.273619","type":"public order","detail":"Public order","location":"On or near Broadhurst Grove","distance":-1},{"id":"56c9f28ffaee9704f19720788902f712aaad54a2c3ea53aefbe8f9bcf90ccfce","longitude":"-1.063196","latitude":"51.288847","type":"theft","detail":"Burglary","location":"On or near Maynard'S Wood","distance":-1},{"id":"b90b43f7d039d447ee7afbd1d2c1d3246c273b08be4fad037ecebb6e1681cc56","longitude":"-1.058306","latitude":"51.289536","type":"violence","detail":"Criminal damage and arson","location":"On or near Hazeldene","distance":-1},{"id":"b3a3b4beda2d76ace840c11ebd251906de51d56acbc29c4cb802fd22e64f0c4c","longitude":"-1.060720","latitude":"51.284385","type":"theft","detail":"Other theft","location":"On or near Parking Area","distance":-1},{"id":"633e06896eadf75257d0430ab33251b68ee0d4b341e1602ae612a93b9fd02ee9","longitude":"-1.050325","latitude":"51.287835","type":"public order","detail":"Public order","location":"On or near Lillymill Chine","distance":-1},{"id":"51dbd0b239da201a31363dbe71b9de87ed49ac52c27ef78129d75405621dcb11","longitude":"-1.050325","latitude":"51.287835","type":"public order","detail":"Public order","location":"On or near Lillymill Chine","distance":-1},{"id":"348b3841f2e4bc1f0487b5677056d1efaaa39b80ce81cb8ddd95fdcaa76aad00","longitude":"-1.059773","latitude":"51.284404","type":"public order","detail":"Public order","location":"On or near Further/Higher Educational Building","distance":-1},{"id":"8424725a76200beb063445cef12db118bc5aaaf8b9b60a75568bc86a1193d598","longitude":"-1.059773","latitude":"51.284404","type":"public order","detail":"Public order","location":"On or near Further/Higher Educational Building","distance":-1},{"id":"f405174b8edc929739809cdb0c3d943efaf78a1b029eb44cde24709eac2f3ab9","longitude":"-1.059773","latitude":"51.284404","type":"theft","detail":"Shoplifting","location":"On or near Further/Higher Educational Building","distance":-1},{"id":"433eb2e91634774e1349a5d07cfa40e7bd3e60f3a2d2c492177c10ba67f7713f","longitude":"-1.059773","latitude":"51.284404","type":"theft","detail":"Shoplifting","location":"On or near Further/Higher Educational Building","distance":-1},{"id":"7e58bc11208d9298b67ef1dbb12163f0f94ef23943c087eb2f8ffcdbfda53df6","longitude":"-1.059773","latitude":"51.284404","type":"theft","detail":"Shoplifting","location":"On or near Further/Higher Educational Building","distance":-1},{"id":"1c1067b34d41cf4418afa8eb01e72e70aaed492cb8015dbe341f71081fed8983","longitude":"-1.056644","latitude":"51.282491","type":"theft","detail":"Theft from the person","location":"On or near Centre Drive","distance":-1},{"id":"3b27ceb530656052c2e40b33173c85a90ae46c3ebdb31a5a06133d985fdf7d4b","longitude":"-1.057433","latitude":"51.288738","type":"violence","detail":"Violence and sexual offences","location":"On or near St Joseph'S Crescent","distance":-1},{"id":"f3bf5d84083d139f3f9dc9ba9a6cb68d141228dfed513151e43239a7471f9d4b","longitude":"-1.055620","latitude":"51.289047","type":"violence","detail":"Violence and sexual offences","location":"On or near Clere Gardens","distance":-1},{"id":"40f610210eca0353fdd0eacd8dc0a76888bca942ecd8c5e2fab21700a4dcdffa","longitude":"-1.050325","latitude":"51.287835","type":"violence","detail":"Violence and sexual offences","location":"On or near Lillymill Chine","distance":-1},{"id":"8aecf98b12d54e43a6550b38e99f0af54106fb8884f9f46577f26537dc8a3d6f","longitude":"-1.059773","latitude":"51.284404","type":"violence","detail":"Violence and sexual offences","location":"On or near Further/Higher Educational Building","distance":-1},{"id":"64c4602416f379b1264e6b73c7ced03ff8d902ffaf2e1ccb909f850b761ecfbc","longitude":"-1.050325","latitude":"51.287835","type":"violence","detail":"Violence and sexual offences","location":"On or near Lillymill Chine","distance":-1},{"id":"24886667a3c2cea7a109e9a6b146edc7c44401c7e0a2a216ad540b83c6cb1867","longitude":"-1.057433","latitude":"51.288738","type":"violence","detail":"Violence and sexual offences","location":"On or near St Joseph'S Crescent","distance":-1},{"id":"47a4c7fabcb1dd7d5ffd18dca7c9ae998253cd1971791c16059bdb8d3fb3ea34","longitude":"-1.060720","latitude":"51.284385","type":"violence","detail":"Violence and sexual offences","location":"On or near Parking Area","distance":-1},{"id":"5f456e503b3b4e12444f1a49186280e60759f6bd7f90b1d04eb1822e8971504d","longitude":"-1.055620","latitude":"51.289047","type":"violence","detail":"Violence and sexual offences","location":"On or near Clere Gardens","distance":-1},{"id":"334391f9fabde4788fb9cf8e501897b39013d9926007a83e07dbfbceaf5c7b65","longitude":"-1.064932","latitude":"51.285965","type":"other","detail":"Other crime","location":"On or near Minden Close","distance":-1},{"id":"634ea0be62ecee88bf9ac127c9fd02902022186c4302facab3857856a5bb4223","longitude":"-1.080199","latitude":"51.272544","type":"theft","detail":"Burglary","location":"On or near Gordon Close","distance":-1},{"id":"4eab244d2765b3e3ed16f6ae0fb8e9ed0854536a439334822ab93f1c3966cd6e","longitude":"-1.075486","latitude":"51.274566","type":"violence","detail":"Criminal damage and arson","location":"On or near Taverner Close","distance":-1},{"id":"b2c7ca2869fcf388f55bc87646f9a2dba0ce4522826cd4f1d8672050d4e13689","longitude":"-1.075486","latitude":"51.274566","type":"violence","detail":"Criminal damage and arson","location":"On or near Taverner Close","distance":-1},{"id":"9485e50296571d7f4d72c88c613d02f7614699b3e091fd7281a011567933807d","longitude":"-1.075486","latitude":"51.274566","type":"violence","detail":"Criminal damage and arson","location":"On or near Taverner Close","distance":-1},{"id":"c703a4635306ffc4f8c20cd62233aa907c72f60709d740904813412108d07c2e","longitude":"-1.077668","latitude":"51.272956","type":"theft","detail":"Other theft","location":"On or near Norn Hill","distance":-1},{"id":"bc46241b0ce1a2e2a378d1528e2921771a93452a00b579645f7e58a2d00e89e0","longitude":"-1.074353","latitude":"51.275277","type":"theft","detail":"Other theft","location":"On or near Freemantle Close","distance":-1},{"id":"f7dadca180ac9db8adc72e11366a2063c45ce27251e6f74a75556dd72c8d0458","longitude":"-1.064935","latitude":"51.276641","type":"public order","detail":"Public order","location":"On or near Stroudley Road","distance":-1},{"id":"309166b910f94478823ac2105bfcb359655854b082b943050ae6a76e8c9e8eaf","longitude":"-1.066555","latitude":"51.273129","type":"theft","detail":"Shoplifting","location":"On or near Armstrong Road","distance":-1},{"id":"3a036e0e001abc4ed2d3b40f9628a22b2f845364272876ec5cc4c1ddb88b4c35","longitude":"-1.072119","latitude":"51.279431","type":"violence","detail":"Violence and sexual offences","location":"On or near Rutherford Road","distance":-1},{"id":"6054399026118803961ca21564b7bf31f9b5da529bff57e6b52c037088ac9bdc","longitude":"-1.077563","latitude":"51.274619","type":"violence","detail":"Violence and sexual offences","location":"On or near Bennet Close","distance":-1},{"id":"090dccc4e8a1d033fa2fe62160ba9f36ef448149c52f27a57c79e5623d69c6a1","longitude":"-1.073095","latitude":"51.273666","type":"violence","detail":"Violence and sexual offences","location":"On or near Sports/Recreation Area","distance":-1},{"id":"3bd455350a6d58767441ab57090afe6f92163ff2cfb99ada1f13dee5c90ddaa9","longitude":"-1.077126","latitude":"51.271387","type":"violence","detail":"Violence and sexual offences","location":"On or near Coronation Road","distance":-1},{"id":"8e996140905aa03100899b7a0c4d65f500b35ff1e024781f6a8ffa65d42dac34","longitude":"-1.072119","latitude":"51.279431","type":"violence","detail":"Violence and sexual offences","location":"On or near Rutherford Road","distance":-1},{"id":"e0a4563bb36a6f35c9f21e73b6d4b02ab145106fe7b76012f5f2295e7d04e385","longitude":"-1.079676","latitude":"51.274365","type":"violence","detail":"Violence and sexual offences","location":"On or near Bingley Close","distance":-1},{"id":"230cf9ff1083bb0b03be0c988ae2f70a6f2df245261fbc8e7ec314fb3636cf1f","longitude":"-1.075486","latitude":"51.274566","type":"violence","detail":"Violence and sexual offences","location":"On or near Taverner Close","distance":-1},{"id":"2dfad69aeb26062be23225c94065a3d52ed01a7d1b3c52938093f490509704c3","longitude":"-1.079676","latitude":"51.274365","type":"violence","detail":"Violence and sexual offences","location":"On or near Bingley Close","distance":-1},{"id":"4ffcaa1c1152f4968f2d9942c53f8ff68e9f4828fe525f3f92abdcf839a2cbe7","longitude":"-1.079676","latitude":"51.274365","type":"violence","detail":"Violence and sexual offences","location":"On or near Bingley Close","distance":-1},{"id":"4175bdfdcdd5b9ea83ec7ec844743a3fc7737d0e28ab9c04a9500d4e18fbc0c8","longitude":"-1.070020","latitude":"51.276169","type":"violence","detail":"Violence and sexual offences","location":"On or near Enterprise Court","distance":-1},{"id":"465b18909275517c2ec68acffc6355c6caf7edef9468f481a9544354a33b6c1c","longitude":"-1.079177","latitude":"51.277806","type":"violence","detail":"Violence and sexual offences","location":"On or near Pedestrian Subway","distance":-1},{"id":"5f3c285f00faa4cc5747a7a11b7307acef045f02e6123dd4c3c887cbfa6144b4","longitude":"-1.079913","latitude":"51.276840","type":"theft","detail":"Burglary","location":"On or near Len Smart Court","distance":-1},{"id":"b27847bd8b74c5807989e4f34f12a77c28f821f2c1e93fa278e76be5dc89541f","longitude":"-1.080801","latitude":"51.276901","type":"theft","detail":"Burglary","location":"On or near Pear Tree Way","distance":-1},{"id":"a8f0e1c8b5bdafa9118fdb4788aece40a5db23ac7ba64ee0a64212fda4a0f34d","longitude":"-1.082629","latitude":"51.277985","type":"violence","detail":"Criminal damage and arson","location":"On or near Wateridge Road","distance":-1},{"id":"0ca00c140d289f60f7a6c710578241838333f53ad08356b8e30ecd7d6984e2ad","longitude":"-1.082629","latitude":"51.277985","type":"violence","detail":"Criminal damage and arson","location":"On or near Wateridge Road","distance":-1},{"id":"946f10f449786872125767c8ddb960d3fe9b89d0e6f01af519b05f2fe76e48ca","longitude":"-1.080758","latitude":"51.278339","type":"public order","detail":"Public order","location":"On or near Cherry Tree Walk","distance":-1},{"id":"251e5a0054fe4afe78a8bc47841d5ccf9e28f07f095132db91a2d07efb557e57","longitude":"-1.079913","latitude":"51.276840","type":"public order","detail":"Public order","location":"On or near Len Smart Court","distance":-1},{"id":"51822e0836a16e2a62ee159976c27f87bf771280f101d7a799fc190fd4acb4ad","longitude":"-1.083103","latitude":"51.276452","type":"public order","detail":"Vehicle crime","location":"On or near Jefferson Road","distance":-1},{"id":"7f73f845d6fba44f4bfb3a24564c85d67d178f289abe16ee00a9552e1af4efef","longitude":"-1.080758","latitude":"51.278339","type":"violence","detail":"Violence and sexual offences","location":"On or near Cherry Tree Walk","distance":-1},{"id":"2a1c3b4937fedc6c208ca069773b80bb48497f921ce02c0e5f0c064ad48e0be7","longitude":"-1.079913","latitude":"51.276840","type":"violence","detail":"Violence and sexual offences","location":"On or near Len Smart Court","distance":-1},{"id":"0f23d2c14d5522886d3262eef9a358c265a262fd65630b19cfed4be723ebc509","longitude":"-1.082629","latitude":"51.277985","type":"violence","detail":"Violence and sexual offences","location":"On or near Wateridge Road","distance":-1},{"id":"71216d819df0d3a71b1d56701bd57e6567b3f94f5e6e23d57e3640f66cb1983f","longitude":"-1.080758","latitude":"51.278339","type":"violence","detail":"Violence and sexual offences","location":"On or near Cherry Tree Walk","distance":-1},{"id":"09477f79d95b3b10f30ee9631766e3f385cd4a1b343aa698ca072651306da459","longitude":"-1.083103","latitude":"51.276452","type":"violence","detail":"Violence and sexual offences","location":"On or near Jefferson Road","distance":-1},{"id":"5e978e07e1765a3aef167c6deac4000b1179fd08523ecc2351d2827f4c04d3aa","longitude":"-1.082629","latitude":"51.277985","type":"violence","detail":"Violence and sexual offences","location":"On or near Wateridge Road","distance":-1},{"id":"42a2c9d3451f23c8ffa6bc528e4a0652420b5faddf72a22ccdbab4a7fbea6293","longitude":"-1.082629","latitude":"51.277985","type":"violence","detail":"Violence and sexual offences","location":"On or near Wateridge Road","distance":-1},{"id":"de428b546e0d91f8d3f46fdb114ed28aa75557494ea319f6b5af10f087f858b3","longitude":"-1.082629","latitude":"51.277985","type":"violence","detail":"Violence and sexual offences","location":"On or near Wateridge Road","distance":-1},{"id":"9ab625614541a4bf0020dc6421e412075d3d6e72339e170a7c6c0544d952c26b","longitude":"-1.080758","latitude":"51.278339","type":"violence","detail":"Violence and sexual offences","location":"On or near Cherry Tree Walk","distance":-1},{"id":"c2db6ce4248c1fbd9fc3e6a74b6f1593cc4aa28fea754fe6fde344eec8212436","longitude":"-1.082629","latitude":"51.277985","type":"violence","detail":"Violence and sexual offences","location":"On or near Wateridge Road","distance":-1},{"id":"9d7cd3986aeeef665c093f2168d54c9de3a736d8377d199a11fe1d5b5e480a96","longitude":"-1.084319","latitude":"51.277306","type":"violence","detail":"Violence and sexual offences","location":"On or near Mullins Close","distance":-1},{"id":"65d3b0c19f20b631ac583c4a2852f10ab625f33a435f2b086189560e534b4f08","longitude":"-1.082629","latitude":"51.277985","type":"violence","detail":"Violence and sexual offences","location":"On or near Wateridge Road","distance":-1},{"id":"5a2fbc06523f7c5ebd03f27f7e24520716a9a3f1540f16944fc64cd87b918463","longitude":"-1.080758","latitude":"51.278339","type":"violence","detail":"Violence and sexual offences","location":"On or near Cherry Tree Walk","distance":-1},{"id":"6285f61b6c2c86a60cc21c4d24efa4c322db07b5534b73bd95490e782bb902bc","longitude":"-1.081813","latitude":"51.276477","type":"violence","detail":"Violence and sexual offences","location":"On or near Bay Tree Way","distance":-1},{"id":"0cf126a96e47b6fd75d41cc40d5f43fbfce8ff9c21355b861229da6daf162143","longitude":"-1.080758","latitude":"51.278339","type":"violence","detail":"Violence and sexual offences","location":"On or near Cherry Tree Walk","distance":-1},{"id":"5c0645ed98bbe958905281face9d51c7d4103b702390fb4edf631011f360a99a","longitude":"-1.082629","latitude":"51.277985","type":"violence","detail":"Violence and sexual offences","location":"On or near Wateridge Road","distance":-1},{"id":"91cce4c2a02d86ace67af6bc9b0b554721acd5e7612769b51f1e8cf762f9a485","longitude":"-1.082629","latitude":"51.277985","type":"violence","detail":"Violence and sexual offences","location":"On or near Wateridge Road","distance":-1},{"id":"b22efdbe2f1cd8a5d969ef8c594be7a2d905a75b2c221ef79e0407bc5adde016","longitude":"-1.092584","latitude":"51.276220","type":"theft","detail":"Burglary","location":"On or near Upton Crescent","distance":-1},{"id":"70eebc9f1297e83cabc81aa209d4e91163f869f1b82684ea34e7ad7a2049d9f0","longitude":"-1.091137","latitude":"51.273268","type":"violence","detail":"Violence and sexual offences","location":"On or near St Thomas' Close","distance":-1},{"id":"2b37a5c00eb86235de8116517a114f2645705ff90befbeb453675b3a5de4a2f9","longitude":"-1.093340","latitude":"51.278608","type":"violence","detail":"Violence and sexual offences","location":"On or near Ringway North","distance":-1},{"id":"57190bb32a94f6c367db767c961a2462e2c344cde81212daa224a081cb92fb97","longitude":"-1.093340","latitude":"51.278608","type":"violence","detail":"Violence and sexual offences","location":"On or near Ringway North","distance":-1},{"id":"f5a43bbde12a9f6e802488203e4b13f78b272bef4342ad0e29a85b2872284439","longitude":"-1.088440","latitude":"51.276304","type":"violence","detail":"Violence and sexual offences","location":"On or near Scotney Road","distance":-1},{"id":"8d09ac5e5b34ccabd906599ef7f1bd07167344b90aa1a712aeb114a7a0e46145","longitude":"-1.102629","latitude":"51.273536","type":"theft","detail":"Burglary","location":"On or near Pedestrian Subway","distance":-1},{"id":"95b62dfa79b8448d42c1523f110296dcc117c7284a13abcc358ffede6b48a45a","longitude":"-1.102629","latitude":"51.273536","type":"theft","detail":"Burglary","location":"On or near Pedestrian Subway","distance":-1},{"id":"b7f7ae70cfc71e76a251fa9e47f668b0c159acde622551967e66bb369cd22512","longitude":"-1.087998","latitude":"51.269638","type":"violence","detail":"Criminal damage and arson","location":"On or near Parking Area","distance":-1},{"id":"f2587a1836d9af3dc7834b3203232408159cd092ac1e54915813a095881cac88","longitude":"-1.091046","latitude":"51.270642","type":"violence","detail":"Criminal damage and arson","location":"On or near Burgess Road","distance":-1},{"id":"c2ea297894ae3913783ac24ad17572ea6b6b588c8e629fe1eee0617757223691","longitude":"-1.095758","latitude":"51.271550","type":"violence","detail":"Criminal damage and arson","location":"On or near Lancaster Road","distance":-1},{"id":"ac9f059dbfcbb8473b171e055b433c52f10fed38640c1aed505efb311aea6f69","longitude":"-1.109111","latitude":"51.271221","type":"theft","detail":"Other theft","location":"On or near Brunel Road","distance":-1},{"id":"6c07db9ef366da54e630cb1d65a341dbeff7e2520e9d302d12bce50329730f6d","longitude":"-1.109111","latitude":"51.271221","type":"theft","detail":"Other theft","location":"On or near Brunel Road","distance":-1},{"id":"af77061847ad03dd68e38048f0f9f69b30ba6caaf390e46bcfafad5bdffb705b","longitude":"-1.105026","latitude":"51.274139","type":"violence","detail":"Possession of weapons","location":"On or near Pedestrian Subway","distance":-1},{"id":"dca9958a529704b33522b2cb790426fd0e3030f20960250c359f30b1d656a1da","longitude":"-1.098637","latitude":"51.271716","type":"public order","detail":"Public order","location":"On or near Kingsclere Road","distance":-1},{"id":"4960a169fd8360e406f3fd10f9836f0f37f129c491bbd67f6cfbf142313817ff","longitude":"-1.095758","latitude":"51.271550","type":"public order","detail":"Public order","location":"On or near Lancaster Road","distance":-1},{"id":"625f1c4b677a012ea6cb13dcab890a0d42066c3012d5ee12bec9b0352bab0573","longitude":"-1.102526","latitude":"51.274408","type":"public order","detail":"Public order","location":"On or near Hubbard Road","distance":-1},{"id":"fafdff82b8d404292494706ac43a130a1976caa6b55be9c02472e592d7263d81","longitude":"-1.098637","latitude":"51.271716","type":"violence","detail":"Robbery","location":"On or near Kingsclere Road","distance":-1},{"id":"37c4735c7b5d947d7ee5dce339a14348e509af8276b17f9f2b521e875d0d721a","longitude":"-1.099409","latitude":"51.274726","type":"violence","detail":"Violence and sexual offences","location":"On or near Millard Close","distance":-1},{"id":"57ad7aed363e5103ed2a14c7a8dbcf633844488aca5910ec2240fc39d9fb229f","longitude":"-1.099409","latitude":"51.274726","type":"violence","detail":"Violence and sexual offences","location":"On or near Millard Close","distance":-1},{"id":"b52d9b3a5793ce004378aebe0b9c0cffeebfc89bd5a706fcaf5094bc07055482","longitude":"-1.099409","latitude":"51.274726","type":"violence","detail":"Violence and sexual offences","location":"On or near Millard Close","distance":-1},{"id":"e7334671a094e8e905577f281b5440c8f5de2eac07d827ba3212b0c8de361c09","longitude":"-1.099409","latitude":"51.274726","type":"violence","detail":"Violence and sexual offences","location":"On or near Millard Close","distance":-1},{"id":"ac43be4a5c35eea504648ce695155b2d97df30bc9a034cd41a785a6d9d21a2c0","longitude":"-1.087998","latitude":"51.269638","type":"violence","detail":"Violence and sexual offences","location":"On or near Parking Area","distance":-1},{"id":"00e4b08232a91b8e8329bb038423c785a8b1725ca07f285da5b45c84a3ea283d","longitude":"-1.097674","latitude":"51.274730","type":"violence","detail":"Violence and sexual offences","location":"On or near Osborne Close","distance":-1},{"id":"5fb55d0616a169eac09a7dc77c319b242a1a2922f437c8ea0d32a4914c8a56d5","longitude":"-1.098637","latitude":"51.271716","type":"violence","detail":"Violence and sexual offences","location":"On or near Kingsclere Road","distance":-1},{"id":"018f45c45604f7d942fa7776e56498f087b01e5b986aa117aa5d80f5648493ff","longitude":"-1.098637","latitude":"51.271716","type":"violence","detail":"Violence and sexual offences","location":"On or near Kingsclere Road","distance":-1},{"id":"539d24c0a5c7a510d65f0d3856d42fb23909e7c256693fa8f90ded4943dae796","longitude":"-1.095758","latitude":"51.271550","type":"violence","detail":"Violence and sexual offences","location":"On or near Lancaster Road","distance":-1},{"id":"a8be27d091720d874cc8b2246ce3d251992b3620bcfc06a1acc2ae383fb980e5","longitude":"-1.098645","latitude":"51.268335","type":"violence","detail":"Violence and sexual offences","location":"On or near Parking Area","distance":-1},{"id":"b144a8ad5f76e9ce971618d32476037d3cda45f19ca3d087cff2b307ff690b18","longitude":"-1.097674","latitude":"51.274730","type":"violence","detail":"Violence and sexual offences","location":"On or near Osborne Close","distance":-1},{"id":"acf29a890c60aa434148acb113fb519ad30751bdfb0d11a80daf241e2fa24560","longitude":"-1.095758","latitude":"51.271550","type":"violence","detail":"Violence and sexual offences","location":"On or near Lancaster Road","distance":-1},{"id":"109bee6cfbb1a7f105551f0f620c12a3d3e82048c3df99914a1bbc2e99076c81","longitude":"-1.095758","latitude":"51.271550","type":"violence","detail":"Violence and sexual offences","location":"On or near Lancaster Road","distance":-1},{"id":"33f07f5fa9c3d3dc734a9c7aa063716516ac38798dd1567b827d3fc33d833f0b","longitude":"-1.091046","latitude":"51.270642","type":"other","detail":"Other crime","location":"On or near Burgess Road","distance":-1},{"id":"6e393bf77324fc0a1a6e3552d70c276a301cc8f7bb85e287ea32b1f0da319ff9","longitude":"-1.109111","latitude":"51.271221","type":"other","detail":"Other crime","location":"On or near Brunel Road","distance":-1},{"id":"8136afa5714db36f6514d1e9682336f9746293f337ec1129158a6507d284e1a4","longitude":"-1.086813","latitude":"51.271571","type":"theft","detail":"Burglary","location":"On or near Norden Close","distance":-1},{"id":"c3d87ff7f86802c12e0a82f6d7532573e3dc407f4afb3f668b23e46a6ad2a510","longitude":"-1.083807","latitude":"51.274946","type":"theft","detail":"Other theft","location":"On or near Sports/Recreation Area","distance":-1},{"id":"967f408b1e193e73e9f76baca0d57a7411e4f8ee415b679ffcc790179b22bf38","longitude":"-1.089338","latitude":"51.270763","type":"public order","detail":"Public order","location":"On or near Vyne Road","distance":-1},{"id":"27e8b9a0c4f8c42b14151018e7649debeba00d4a59accc540c29e29124357743","longitude":"-1.084405","latitude":"51.272982","type":"public order","detail":"Public order","location":"On or near Middleton Gardens","distance":-1},{"id":"8fa559bcb24c85b5651dc0c648a1328607ba3a0c4284d6cd8c37c625bfde6786","longitude":"-1.085352","latitude":"51.272953","type":"public order","detail":"Public order","location":"On or near Marshall Gardens","distance":-1},{"id":"e2e15ae80fcdc6ff75cfbb0700c2c8be6c2d580622cbd38791e8e6f291b33dd8","longitude":"-1.083621","latitude":"51.274226","type":"public order","detail":"Vehicle crime","location":"On or near Nash Close","distance":-1},{"id":"ae7d31b10d3b6618a36c340a7b0be5afc90413a4901776438025349d16179a32","longitude":"-1.089338","latitude":"51.270763","type":"violence","detail":"Violence and sexual offences","location":"On or near Vyne Road","distance":-1},{"id":"9f820bc296e61bcd3ff2f76580f73dec752d9e0b2067c600434165bc28685cdc","longitude":"-1.089338","latitude":"51.270763","type":"violence","detail":"Violence and sexual offences","location":"On or near Vyne Road","distance":-1},{"id":"f0e1dfb18105a361bc7f1b03debd61a5ba7886574278695c150e3643aa10f72d","longitude":"-1.083807","latitude":"51.274946","type":"violence","detail":"Violence and sexual offences","location":"On or near Sports/Recreation Area","distance":-1},{"id":"d8fcbd13302ca39bb944d752220af9e6713292c9cb41eb469b1342f35fa981d9","longitude":"-1.084998","latitude":"51.271314","type":"violence","detail":"Violence and sexual offences","location":"On or near Lyford Road","distance":-1},{"id":"bd9437ea8aca393d0b19f66df80258f9e3460beef2c0228b4748bef98c852768","longitude":"-1.084834","latitude":"51.273039","type":"violence","detail":"Violence and sexual offences","location":"On or near Arlott Drive","distance":-1},{"id":"224ba547f1aaf934296830abaa1c7c8115ecc2105fb68726356b83a924ee3571","longitude":"-1.084998","latitude":"51.271314","type":"violence","detail":"Violence and sexual offences","location":"On or near Lyford Road","distance":-1},{"id":"6532ece32f4b24f67afedacb7aa061aa6d49f0701501b4e3291ed062de5c6b4b","longitude":"-1.084834","latitude":"51.273039","type":"violence","detail":"Violence and sexual offences","location":"On or near Arlott Drive","distance":-1},{"id":"ca79f582978ab5007422c4fcb8eb8c6a4a565c2237ca9470d9ba5afb7a2cc281","longitude":"-1.085352","latitude":"51.272953","type":"violence","detail":"Violence and sexual offences","location":"On or near Marshall Gardens","distance":-1},{"id":"7179f0104cd25258c58fba8ad3e4be70589a283ff3378a6be11d2b6c1a25049f","longitude":"-1.082539","latitude":"51.270962","type":"other","detail":"Other crime","location":"On or near Deane'S Close","distance":-1},{"id":"1d673addd2071a8849b04f3b6816b634d6e6e031663b0429ed63ddd2a44fee4d","longitude":"-1.126924","latitude":"51.269943","type":"theft","detail":"Burglary","location":"On or near Kenilworth Road","distance":-1},{"id":"3b530b7fd8fa07cedc49d5838fb8db911624b0b3c4874d0fc1da45c2c0342405","longitude":"-1.126924","latitude":"51.269943","type":"violence","detail":"Violence and sexual offences","location":"On or near Kenilworth Road","distance":-1},{"id":"6a62020712b1d16b97d209e63b89b9ff032fc6ab7dedfefc0353dfd60bb2fd99","longitude":"-1.124966","latitude":"51.270414","type":"violence","detail":"Violence and sexual offences","location":"On or near Fort Hill Drive","distance":-1},{"id":"921d255c8b57251b5ba596d6314e496d1a24445d5ef6b3285987d35831f51773","longitude":"-1.126924","latitude":"51.269943","type":"violence","detail":"Violence and sexual offences","location":"On or near Kenilworth Road","distance":-1},{"id":"a9289d650e522afb01720d022eadbd12d0bffd1c4663638db8454ce01540e079","longitude":"-1.114200","latitude":"51.272671","type":"violence","detail":"Criminal damage and arson","location":"On or near Watson Way","distance":-1},{"id":"e77cd70c2647c349397dcd5337abf9fa42e94e89a93c0fe9010328f27ec49b23","longitude":"-1.115704","latitude":"51.269014","type":"theft","detail":"Other theft","location":"On or near Woolford Way","distance":-1},{"id":"9d812bfb36aafe0ca5a9e70d89fceb3683a7225516226d16906def43f7538e83","longitude":"-1.115859","latitude":"51.274374","type":"public order","detail":"Public order","location":"On or near Ashwood Way","distance":-1},{"id":"8dd4bbedbe6bc17c2407378288ed1b1943b46eac6faa6376891d56f6c5da5ece","longitude":"-1.113623","latitude":"51.268423","type":"public order","detail":"Public order","location":"On or near Pedestrian Subway","distance":-1},{"id":"11934338bc9608dd9b6266354c0e97d65b54f264eda2dcdf44ff6ade25ed9354","longitude":"-1.114200","latitude":"51.272671","type":"public order","detail":"Public order","location":"On or near Watson Way","distance":-1},{"id":"17736dbc000de10f82422b187fac713ceb7e251434619c8d3f3765b8720f8689","longitude":"-1.114200","latitude":"51.272671","type":"public order","detail":"Public order","location":"On or near Watson Way","distance":-1},{"id":"925c4ed0fb8624f874607b7cddf5a10ce413d27e62df0a1725142deec1edb7e7","longitude":"-1.115704","latitude":"51.269014","type":"public order","detail":"Public order","location":"On or near Woolford Way","distance":-1},{"id":"483be273b9358151ada0ce02197d8ac1db42ed5546645ac3507b2ef8ccadebc1","longitude":"-1.114200","latitude":"51.272671","type":"theft","detail":"Shoplifting","location":"On or near Watson Way","distance":-1},{"id":"bc5f22c02285a9c16cd07b4e0693f6b1abbfb538f3543628682056bf9e9953f2","longitude":"-1.113347","latitude":"51.271577","type":"violence","detail":"Violence and sexual offences","location":"On or near Pedestrian Subway","distance":-1},{"id":"5b4bfd3d6c3aec247bfe1d662161d8b6a74e4530b13bc797186cf6b3d265e309","longitude":"-1.112243","latitude":"51.271605","type":"violence","detail":"Violence and sexual offences","location":"On or near Pedestrian Subway","distance":-1},{"id":"ea5e9c180be0e47960afa57c4fdbbd91a6e37d485737e57725c430f6951dcd0c","longitude":"-1.117638","latitude":"51.272823","type":"violence","detail":"Violence and sexual offences","location":"On or near Laburnum Way","distance":-1},{"id":"8ef96b1bfe51f258b1401a8677de23c9b5608c286807c42df426fb6adc968878","longitude":"-1.114200","latitude":"51.272671","type":"other","detail":"Other crime","location":"On or near Watson Way","distance":-1},{"id":"6fa0982e1ba2dfaeaf6fef836288e0221c71ace3308218407f09a2b0d832fba1","longitude":"-1.123787","latitude":"51.268346","type":"theft","detail":"Other theft","location":"On or near Pedestrian Subway","distance":-1},{"id":"b84333b2cbc76f7126be1f18ea16b20f9304a6975538b154099aac408682f9fa","longitude":"-1.127434","latitude":"51.268769","type":"public order","detail":"Public order","location":"On or near Hillcrest Court","distance":-1},{"id":"d2e6ac9fcfb127ff2d8a16d9a73c5ce373b9c83d12f5333b7853305cabb31429","longitude":"-1.127434","latitude":"51.268769","type":"public order","detail":"Public order","location":"On or near Hillcrest Court","distance":-1},{"id":"2ba17b8549583143a433e2a5d4a81603be15ed90fbdeb90bd6a465c5db511c67","longitude":"-1.117499","latitude":"51.269621","type":"public order","detail":"Vehicle crime","location":"On or near Willoughby Way","distance":-1},{"id":"06695458a2fa0b36525d5a8cbce005f23c4cbd1fc86dd959e2517b8c28166273","longitude":"-1.124088","latitude":"51.268349","type":"violence","detail":"Violence and sexual offences","location":"On or near Pedestrian Subway","distance":-1},{"id":"6b2cadde1b7c83498e8b2ade21ee1c3294365a03949b66d0b4b15f605d6428a8","longitude":"-1.123113","latitude":"51.267622","type":"violence","detail":"Violence and sexual offences","location":"On or near Pedestrian Subway","distance":-1},{"id":"1eca176eda11a5fa776c18fae43cfbffa9c5b968e5492691dbb2e38bac25eec6","longitude":"-1.118122","latitude":"51.268520","type":"violence","detail":"Violence and sexual offences","location":"On or near Dover Close","distance":-1},{"id":"8828c5e085b96ac1a510b4f258809dc50e9aeab07af23842c1ad00ef688e3f33","longitude":"-1.125878","latitude":"51.273703","type":"violence","detail":"Criminal damage and arson","location":"On or near Oaklands Way","distance":-1},{"id":"0e0c6a98f2eba53a572945038db960538aac33ccd6b052b696c0515bd49db05d","longitude":"-1.125878","latitude":"51.273703","type":"violence","detail":"Violence and sexual offences","location":"On or near Oaklands Way","distance":-1},{"id":"9aa137c5f8cba0f292586a46d148a4fce357ffc4af5cb6e6083c73ba3a32f884","longitude":"-1.125878","latitude":"51.273703","type":"violence","detail":"Violence and sexual offences","location":"On or near Oaklands Way","distance":-1},{"id":"0de86b3ea51e12ec6a226e1d3a5d4104da7f6f43be80ca122dd2f109c19e1f75","longitude":"-1.117509","latitude":"51.278083","type":"violence","detail":"Criminal damage and arson","location":"On or near Peggs Way","distance":-1},{"id":"f6d38907588203a7acf2379a92b37e4e3f94d56453562f72c9edb0649e025ab7","longitude":"-1.119212","latitude":"51.281962","type":"violence","detail":"Criminal damage and arson","location":"On or near Park Prewett Road","distance":-1},{"id":"00ec7165b6333005e3cbcb88d2f4054b32456a43b506073b1af38e66cd113704","longitude":"-1.114002","latitude":"51.282237","type":"public order","detail":"Drugs","location":"On or near Sports/Recreation Area","distance":-1},{"id":"95429a3d1f7a2dba327a26470f152154d0327c114d5fcdf9aebf1146ea7de331","longitude":"-1.119440","latitude":"51.281289","type":"public order","detail":"Public order","location":"On or near Greenlands Road","distance":-1},{"id":"0a526cb61b2ccee347dff0570248982db2567aabc7f1defc24bae4570f64957b","longitude":"-1.111715","latitude":"51.280368","type":"public order","detail":"Public order","location":"On or near Dinwoodie Drive","distance":-1},{"id":"8347950c0bb469023ac0dfbb145b0a14f2e93c284aa2038b6f7e3ea0df781889","longitude":"-1.114002","latitude":"51.282237","type":"public order","detail":"Public order","location":"On or near Sports/Recreation Area","distance":-1},{"id":"56716da59eb50c0a392274c36106a08d01e67ee78d361dd6011815581faf5373","longitude":"-1.114002","latitude":"51.282237","type":"public order","detail":"Vehicle crime","location":"On or near Sports/Recreation Area","distance":-1},{"id":"c65d1dbaf1797260f776a6012d495e07b1ab52b540154b99a934e44be0245c1a","longitude":"-1.111715","latitude":"51.280368","type":"violence","detail":"Violence and sexual offences","location":"On or near Dinwoodie Drive","distance":-1},{"id":"25197a7ec231ec9bf2bf1082cd4f7be295ffb07cb29254e06357ec1389e3f3c4","longitude":"-1.116641","latitude":"51.281439","type":"violence","detail":"Violence and sexual offences","location":"On or near Elder Road","distance":-1},{"id":"f87f39aad43c19121de08d3ba6f553eb35083b87a0510db84f3dbb5d4c1f1f21","longitude":"-1.111715","latitude":"51.280368","type":"violence","detail":"Violence and sexual offences","location":"On or near Dinwoodie Drive","distance":-1},{"id":"50530caf25271013397fc97d547dc06dc0964794ec25f77052c347daa1fca6ca","longitude":"-1.112497","latitude":"51.279232","type":"violence","detail":"Violence and sexual offences","location":"On or near The Square","distance":-1},{"id":"501cbe8593229fc68fe0bb68abf90b7c57e3971d6bd82276a3b1ba866f076c89","longitude":"-1.114002","latitude":"51.282237","type":"violence","detail":"Violence and sexual offences","location":"On or near Sports/Recreation Area","distance":-1},{"id":"7ce9da62d4319773535af91ab56759064b6bc8994e5f88b2204aba5041870273","longitude":"-1.119212","latitude":"51.281962","type":"violence","detail":"Violence and sexual offences","location":"On or near Park Prewett Road","distance":-1},{"id":"17fe1ceea1fe98071869e083e2c6c851bd43cff4dc1629df7f2f5a6aeb224f97","longitude":"-1.111715","latitude":"51.280368","type":"violence","detail":"Violence and sexual offences","location":"On or near Dinwoodie Drive","distance":-1},{"id":"29e54c380f92d125d971c90ef2ca7ca83c8d7b2d5dae6a3ff7e5c541f20fb07a","longitude":"-1.112497","latitude":"51.279232","type":"violence","detail":"Violence and sexual offences","location":"On or near The Square","distance":-1},{"id":"2938336c86e808d543a5ae557b2981bc69aabf941f78be9295d57d319ae86ba3","longitude":"-1.111715","latitude":"51.280368","type":"violence","detail":"Violence and sexual offences","location":"On or near Dinwoodie Drive","distance":-1},{"id":"189376dc0cb8a1fa30727f2b87f119ff49312a8da81636c493b4b6c687afb835","longitude":"-1.116641","latitude":"51.281439","type":"violence","detail":"Violence and sexual offences","location":"On or near Elder Road","distance":-1},{"id":"9e42bd5ab104800eefe4faf23aaf0c199fc03f18582dbc25102a6ef06a390ad3","longitude":"-1.111715","latitude":"51.280368","type":"violence","detail":"Violence and sexual offences","location":"On or near Dinwoodie Drive","distance":-1},{"id":"c1b6f474372bfc0229e1fb7e0fb3307ead0ef9ff862082084c2444a3bbd99882","longitude":"-1.114015","latitude":"51.277849","type":"violence","detail":"Violence and sexual offences","location":"On or near Cutting Drive","distance":-1},{"id":"9364dd5da6e6f8fdbb33d87d02cf5f27a6528620884a26c65ce6da2c79c12e98","longitude":"-1.114002","latitude":"51.282237","type":"violence","detail":"Violence and sexual offences","location":"On or near Sports/Recreation Area","distance":-1},{"id":"3ffe64fb1d76eb80b250ca9e61e88022f06c5f2e70bcced13eada3c9c1333899","longitude":"-1.119212","latitude":"51.281962","type":"violence","detail":"Violence and sexual offences","location":"On or near Park Prewett Road","distance":-1},{"id":"53efdcdb4744d6e8b7e8c8aea00fd3ad3892c5fc36ae7b1e4b502fdf15bee060","longitude":"-1.124136","latitude":"51.281630","type":"violence","detail":"Criminal damage and arson","location":"On or near Nightingale Gardens","distance":-1},{"id":"06429fc0755cfeb27242b520b844c5e9c6be9951b124f3fb913c6a87839ee0f4","longitude":"-1.122017","latitude":"51.280751","type":"public order","detail":"Public order","location":"On or near Knowle Road","distance":-1},{"id":"d7d88d25f54c74ed20448afc841424c26089ca1a108411b11028abac1c0a23de","longitude":"-1.122017","latitude":"51.280751","type":"public order","detail":"Public order","location":"On or near Knowle Road","distance":-1},{"id":"bf1ef53bbd986958e6e591ca5e02974ec7c921633413d196d779b7996ce6a4af","longitude":"-1.122482","latitude":"51.279649","type":"violence","detail":"Violence and sexual offences","location":"On or near Vitellius Gardens","distance":-1},{"id":"ab8530e54ab894ee7eb945a0445963feedd0414180568c444ed11b54ca46177b","longitude":"-1.124136","latitude":"51.281630","type":"violence","detail":"Violence and sexual offences","location":"On or near Nightingale Gardens","distance":-1},{"id":"2dfade849d32f05797aeb220965a7d232f8022fdaa1b5046826611c77f6dc458","longitude":"-1.121038","latitude":"51.277929","type":"violence","detail":"Violence and sexual offences","location":"On or near Highpath Way","distance":-1},{"id":"506704c7bfa18979228febc6bf2951e3dd9be8b800efedef00087bf423c42a9e","longitude":"-1.121038","latitude":"51.277929","type":"violence","detail":"Violence and sexual offences","location":"On or near Highpath Way","distance":-1},{"id":"53157fe82f2c111736d7536cb164cb3a8e3d1cd27764ee3e918147876e778964","longitude":"-1.071971","latitude":"51.264027","type":"violence","detail":"Criminal damage and arson","location":"On or near Severn Way","distance":-1},{"id":"7af44ab2a2c71419b867a7e3e1a38525a339f9822751afd3e57d51b128ea9ead","longitude":"-1.079789","latitude":"51.261490","type":"public order","detail":"Drugs","location":"On or near Crossborough Hill","distance":-1},{"id":"60462172f73241649a7b5ff96c27504c9f945243ac982b2f325241586920154a","longitude":"-1.079789","latitude":"51.261490","type":"violence","detail":"Possession of weapons","location":"On or near Crossborough Hill","distance":-1},